[
  {
    "id": "ph50014",
    "name": "Fortis Pharmacy Churchgate",
    "lat": 18.925532,
    "lon": 72.823391,
    "city": "Mumbai",
    "pincode": "400001",
    "area": "Churchgate",
    "district": "Mumbai City",
    "services": [
      "24x7",
      "home_delivery",
      "online_ordering"
    ],
    "delivery_km": 5,
    "rating": 5.0,
    "verified": false
  },
  {
    "id": "ph91828",
    "name": "HealthFirst Churchgate 2",
    "lat": 18.934911,
    "lon": 72.82306,
    "city": "Mumbai",
    "pincode": "400001",
    "area": "Churchgate",
    "district": "Mumbai City",
    "services": [
      "home_delivery",
      "online_ordering",
      "consultation"
    ],
    "delivery_km": 7,
    "rating": 4.6,
    "verified": false
  },
  {
    "id": "ph39789",
    "name": "Sun Pharma Outlet Churchgate 3",
    "lat": 18.925203,
    "lon": 72.831902,
    "city": "Mumbai",
    "pincode": "400001",
    "area": "Churchgate",
    "district": "Mumbai City",
    "services": [
      "24x7",
      "home_delivery"
    ],
    "delivery_km": 7,
    "rating": 3.8,
    "verified": true
  },
  {
    "id": "ph20477",
    "name": "CureWell Kalbadevi",
    "lat": 18.947594,
    "lon": 72.830094,
    "city": "Mumbai",
    "pincode": "400002",
    "area": "Kalbadevi",
    "district": "Mumbai City",
    "services": [
      "24x7",
      "home_delivery"
    ],
    "delivery_km": 5,
    "rating": 4.1,
    "verified": false
  },
  {
    "id": "ph26031",
    "name": "Sun Pharma Outlet Kalbadevi 2",
    "lat": 18.944018,
    "lon": 72.822613,
    "city": "Mumbai",
    "pincode": "400002",
    "area": "Kalbadevi",
    "district": "Mumbai City",
    "services": [
      "home_delivery",
      "consultation"
    ],
    "delivery_km": 15,
    "rating": 4.9,
    "verified": true
  },
  {
    "id": "ph11186",
    "name": "MedPlus Kalbadevi 3",
    "lat": 18.944368,
    "lon": 72.838371,
    "city": "Mumbai",
    "pincode": "400002",
    "area": "Kalbadevi",
    "district": "Mumbai City",
    "services": [
      "home_delivery",
      "online_ordering",
      "consultation"
    ],
    "delivery_km": 7,
    "rating": 3.7,
    "verified": false
  },
  {
    "id": "ph39806",
    "name": "PharmEasy Store Mandvi",
    "lat": 18.94936,
    "lon": 72.842034,
    "city": "Mumbai",
    "pincode": "400003",
    "area": "Mandvi",
    "district": "Mumbai City",
    "services": [
      "home_delivery",
      "consultation"
    ],
    "delivery_km": 10,
    "rating": 4.3,
    "verified": true
  },
  {
    "id": "ph15241",
    "name": "CureWell Mandvi 2",
    "lat": 18.946183,
    "lon": 72.843646,
    "city": "Mumbai",
    "pincode": "400003",
    "area": "Mandvi",
    "district": "Mumbai City",
    "services": [
      "home_delivery",
      "consultation"
    ],
    "delivery_km": 10,
    "rating": 4.6,
    "verified": true
  },
  {
    "id": "ph80663",
    "name": "PharmaOne Mandvi 3",
    "lat": 18.955794,
    "lon": 72.841071,
    "city": "Mumbai",
    "pincode": "400003",
    "area": "Mandvi",
    "district": "Mumbai City",
    "services": [
      "24x7",
      "home_delivery",
      "online_ordering"
    ],
    "delivery_km": 10,
    "rating": 4.8,
    "verified": false
  },
  {
    "id": "ph71315",
    "name": "1mg Store Girgaon",
    "lat": 18.946382,
    "lon": 72.805963,
    "city": "Mumbai",
    "pincode": "400004",
    "area": "Girgaon",
    "district": "Mumbai City",
    "services": [
      "home_delivery",
      "online_ordering",
      "consultation"
    ],
    "delivery_km": 10,
    "rating": 3.8,
    "verified": true
  },
  {
    "id": "ph67557",
    "name": "Netmeds Pharmacy Girgaon 2",
    "lat": 18.94991,
    "lon": 72.822999,
    "city": "Mumbai",
    "pincode": "400004",
    "area": "Girgaon",
    "district": "Mumbai City",
    "services": [
      "24x7",
      "home_delivery",
      "online_ordering"
    ],
    "delivery_km": 10,
    "rating": 3.9,
    "verified": true
  },
  {
    "id": "ph30969",
    "name": "CarePlus Pharmacy Girgaon 3",
    "lat": 18.947342,
    "lon": 72.814139,
    "city": "Mumbai",
    "pincode": "400004",
    "area": "Girgaon",
    "district": "Mumbai City",
    "services": [
      "home_delivery"
    ],
    "delivery_km": 15,
    "rating": 4.6,
    "verified": true
  },
  {
    "id": "ph98874",
    "name": "Fortis Pharmacy Colaba",
    "lat": 18.903846,
    "lon": 72.806204,
    "city": "Mumbai",
    "pincode": "400005",
    "area": "Colaba",
    "district": "Mumbai City",
    "services": [
      "home_delivery"
    ],
    "delivery_km": 15,
    "rating": 4.6,
    "verified": false
  },
  {
    "id": "ph98366",
    "name": "Dr Reddys Colaba 2",
    "lat": 18.899656,
    "lon": 72.820205,
    "city": "Mumbai",
    "pincode": "400005",
    "area": "Colaba",
    "district": "Mumbai City",
    "services": [
      "24x7",
      "home_delivery",
      "online_ordering"
    ],
    "delivery_km": 15,
    "rating": 3.7,
    "verified": false
  },
  {
    "id": "ph38225",
    "name": "Dr Reddys Colaba 3",
    "lat": 18.906624,
    "lon": 72.827829,
    "city": "Mumbai",
    "pincode": "400005",
    "area": "Colaba",
    "district": "Mumbai City",
    "services": [
      "home_delivery"
    ],
    "delivery_km": 10,
    "rating": 4.2,
    "verified": true
  },
  {
    "id": "ph33989",
    "name": "Sun Pharma Outlet Malabar",
    "lat": 18.952172,
    "lon": 72.796629,
    "city": "Mumbai",
    "pincode": "400006",
    "area": "Malabar Hill",
    "district": "Mumbai City",
    "services": [
      "24x7",
      "home_delivery"
    ],
    "delivery_km": 5,
    "rating": 4.8,
    "verified": true
  },
  {
    "id": "ph14673",
    "name": "CureWell Malabar 2",
    "lat": 18.946374,
    "lon": 72.795848,
    "city": "Mumbai",
    "pincode": "400006",
    "area": "Malabar Hill",
    "district": "Mumbai City",
    "services": [
      "home_delivery",
      "online_ordering",
      "consultation"
    ],
    "delivery_km": 5,
    "rating": 4.9,
    "verified": false
  },
  {
    "id": "ph77504",
    "name": "CarePlus Pharmacy Malabar 3",
    "lat": 18.958291,
    "lon": 72.798107,
    "city": "Mumbai",
    "pincode": "400006",
    "area": "Malabar Hill",
    "district": "Mumbai City",
    "services": [
      "online_ordering",
      "consultation"
    ],
    "delivery_km": 5,
    "rating": 4.5,
    "verified": true
  },
  {
    "id": "ph85587",
    "name": "CureWell Grant",
    "lat": 18.960916,
    "lon": 72.820299,
    "city": "Mumbai",
    "pincode": "400007",
    "area": "Grant Road",
    "district": "Mumbai City",
    "services": [
      "home_delivery",
      "consultation"
    ],
    "delivery_km": 5,
    "rating": 3.5,
    "verified": true
  },
  {
    "id": "ph55896",
    "name": "Fortis Pharmacy Grant 2",
    "lat": 18.962673,
    "lon": 72.815987,
    "city": "Mumbai",
    "pincode": "400007",
    "area": "Grant Road",
    "district": "Mumbai City",
    "services": [
      "24x7",
      "home_delivery",
      "online_ordering"
    ],
    "delivery_km": 15,
    "rating": 4.3,
    "verified": true
  },
  {
    "id": "ph25758",
    "name": "MediHub Grant 3",
    "lat": 18.964779,
    "lon": 72.803442,
    "city": "Mumbai",
    "pincode": "400007",
    "area": "Grant Road",
    "district": "Mumbai City",
    "services": [
      "home_delivery",
      "online_ordering",
      "consultation"
    ],
    "delivery_km": 10,
    "rating": 4.8,
    "verified": true
  },
  {
    "id": "ph50922",
    "name": "PharmaOne Tardeo",
    "lat": 18.973386,
    "lon": 72.821983,
    "city": "Mumbai",
    "pincode": "400008",
    "area": "Tardeo",
    "district": "Mumbai City",
    "services": [
      "24x7",
      "home_delivery"
    ],
    "delivery_km": 15,
    "rating": 4.3,
    "verified": true
  },
  {
    "id": "ph88024",
    "name": "CarePlus Pharmacy Tardeo 2",
    "lat": 18.965523,
    "lon": 72.813224,
    "city": "Mumbai",
    "pincode": "400008",
    "area": "Tardeo",
    "district": "Mumbai City",
    "services": [
      "home_delivery"
    ],
    "delivery_km": 7,
    "rating": 4.6,
    "verified": true
  },
  {
    "id": "ph18321",
    "name": "VitalRx Tardeo 3",
    "lat": 18.968356,
    "lon": 72.799473,
    "city": "Mumbai",
    "pincode": "400008",
    "area": "Tardeo",
    "district": "Mumbai City",
    "services": [
      "home_delivery",
      "online_ordering",
      "consultation"
    ],
    "delivery_km": 5,
    "rating": 3.9,
    "verified": true
  },
  {
    "id": "ph91399",
    "name": "CarePlus Pharmacy Opera",
    "lat": 18.964588,
    "lon": 72.801839,
    "city": "Mumbai",
    "pincode": "400009",
    "area": "Opera House",
    "district": "Mumbai City",
    "services": [
      "home_delivery",
      "online_ordering",
      "consultation"
    ],
    "delivery_km": 7,
    "rating": 4.9,
    "verified": false
  },
  {
    "id": "ph68068",
    "name": "VitalRx Opera 2",
    "lat": 18.952479,
    "lon": 72.805853,
    "city": "Mumbai",
    "pincode": "400009",
    "area": "Opera House",
    "district": "Mumbai City",
    "services": [
      "home_delivery"
    ],
    "delivery_km": 15,
    "rating": 4.6,
    "verified": true
  },
  {
    "id": "ph44515",
    "name": "CureWell Opera 3",
    "lat": 18.959382,
    "lon": 72.80553,
    "city": "Mumbai",
    "pincode": "400009",
    "area": "Opera House",
    "district": "Mumbai City",
    "services": [
      "home_delivery",
      "consultation"
    ],
    "delivery_km": 7,
    "rating": 4.1,
    "verified": true
  },
  {
    "id": "ph18498",
    "name": "VitalRx Mazgaon",
    "lat": 18.976531,
    "lon": 72.850757,
    "city": "Mumbai",
    "pincode": "400010",
    "area": "Mazgaon",
    "district": "Mumbai City",
    "services": [
      "home_delivery"
    ],
    "delivery_km": 5,
    "rating": 4.8,
    "verified": true
  },
  {
    "id": "ph11059",
    "name": "Apollo Pharmacy Mazgaon 2",
    "lat": 18.966624,
    "lon": 72.840089,
    "city": "Mumbai",
    "pincode": "400010",
    "area": "Mazgaon",
    "district": "Mumbai City",
    "services": [
      "24x7",
      "home_delivery",
      "online_ordering"
    ],
    "delivery_km": 7,
    "rating": 4.6,
    "verified": false
  },
  {
    "id": "ph81420",
    "name": "Fortis Pharmacy Mazgaon 3",
    "lat": 18.961119,
    "lon": 72.853715,
    "city": "Mumbai",
    "pincode": "400010",
    "area": "Mazgaon",
    "district": "Mumbai City",
    "services": [
      "home_delivery",
      "consultation"
    ],
    "delivery_km": 10,
    "rating": 4.7,
    "verified": true
  },
  {
    "id": "ph72600",
    "name": "MediHub Parel",
    "lat": 18.99785,
    "lon": 72.848736,
    "city": "Mumbai",
    "pincode": "400011",
    "area": "Parel",
    "district": "Mumbai City",
    "services": [
      "online_ordering",
      "consultation"
    ],
    "delivery_km": 7,
    "rating": 4.0,
    "verified": true
  },
  {
    "id": "ph33018",
    "name": "Apollo Pharmacy Parel 2",
    "lat": 19.011729,
    "lon": 72.847866,
    "city": "Mumbai",
    "pincode": "400011",
    "area": "Parel",
    "district": "Mumbai City",
    "services": [
      "home_delivery",
      "consultation"
    ],
    "delivery_km": 15,
    "rating": 4.1,
    "verified": false
  },
  {
    "id": "ph54890",
    "name": "PharmEasy Store Parel 3",
    "lat": 19.000844,
    "lon": 72.847671,
    "city": "Mumbai",
    "pincode": "400011",
    "area": "Parel",
    "district": "Mumbai City",
    "services": [
      "home_delivery",
      "online_ordering",
      "consultation"
    ],
    "delivery_km": 5,
    "rating": 3.6,
    "verified": true
  },
  {
    "id": "ph14053",
    "name": "Wellness Forever Lower",
    "lat": 19.006172,
    "lon": 72.836436,
    "city": "Mumbai",
    "pincode": "400012",
    "area": "Lower Parel",
    "district": "Mumbai City",
    "services": [
      "online_ordering",
      "consultation"
    ],
    "delivery_km": 15,
    "rating": 4.0,
    "verified": true
  },
  {
    "id": "ph64451",
    "name": "Wellness Forever Lower 2",
    "lat": 19.008246,
    "lon": 72.82888,
    "city": "Mumbai",
    "pincode": "400012",
    "area": "Lower Parel",
    "district": "Mumbai City",
    "services": [
      "home_delivery",
      "consultation"
    ],
    "delivery_km": 15,
    "rating": 3.9,
    "verified": true
  },
  {
    "id": "ph15539",
    "name": "Dr Reddys Lower 3",
    "lat": 18.996987,
    "lon": 72.818533,
    "city": "Mumbai",
    "pincode": "400012",
    "area": "Lower Parel",
    "district": "Mumbai City",
    "services": [
      "24x7",
      "home_delivery"
    ],
    "delivery_km": 10,
    "rating": 4.9,
    "verified": false
  },
  {
    "id": "ph31765",
    "name": "CarePlus Pharmacy Delisle",
    "lat": 18.981846,
    "lon": 72.814155,
    "city": "Mumbai",
    "pincode": "400013",
    "area": "Delisle Road",
    "district": "Mumbai City",
    "services": [
      "home_delivery",
      "online_ordering",
      "consultation"
    ],
    "delivery_km": 7,
    "rating": 4.6,
    "verified": false
  },
  {
    "id": "ph82256",
    "name": "LifeCare Chemist Delisle 2",
    "lat": 18.962076,
    "lon": 72.82044,
    "city": "Mumbai",
    "pincode": "400013",
    "area": "Delisle Road",
    "district": "Mumbai City",
    "services": [
      "home_delivery"
    ],
    "delivery_km": 10,
    "rating": 4.2,
    "verified": false
  },
  {
    "id": "ph96409",
    "name": "Sanjeevani Medical Delisle 3",
    "lat": 18.972832,
    "lon": 72.81746,
    "city": "Mumbai",
    "pincode": "400013",
    "area": "Delisle Road",
    "district": "Mumbai City",
    "services": [
      "home_delivery",
      "consultation"
    ],
    "delivery_km": 7,
    "rating": 3.5,
    "verified": true
  },
  {
    "id": "ph47435",
    "name": "HealthFirst Dadar",
    "lat": 19.012154,
    "lon": 72.836159,
    "city": "Mumbai",
    "pincode": "400014",
    "area": "Dadar",
    "district": "Mumbai City",
    "services": [
      "home_delivery"
    ],
    "delivery_km": 15,
    "rating": 3.9,
    "verified": true
  },
  {
    "id": "ph67086",
    "name": "LifeCare Chemist Dadar 2",
    "lat": 19.0131,
    "lon": 72.851532,
    "city": "Mumbai",
    "pincode": "400014",
    "area": "Dadar",
    "district": "Mumbai City",
    "services": [
      "24x7",
      "home_delivery"
    ],
    "delivery_km": 7,
    "rating": 3.9,
    "verified": true
  },
  {
    "id": "ph70616",
    "name": "HealthFirst Dadar 3",
    "lat": 19.005122,
    "lon": 72.853688,
    "city": "Mumbai",
    "pincode": "400014",
    "area": "Dadar",
    "district": "Mumbai City",
    "services": [
      "24x7",
      "home_delivery",
      "online_ordering"
    ],
    "delivery_km": 5,
    "rating": 4.6,
    "verified": true
  },
  {
    "id": "ph55153",
    "name": "CarePlus Pharmacy Mahim",
    "lat": 19.040269,
    "lon": 72.840647,
    "city": "Mumbai",
    "pincode": "400016",
    "area": "Mahim",
    "district": "Mumbai City",
    "services": [
      "24x7",
      "home_delivery"
    ],
    "delivery_km": 5,
    "rating": 4.1,
    "verified": false
  },
  {
    "id": "ph45149",
    "name": "LifeCare Chemist Mahim 2",
    "lat": 19.044453,
    "lon": 72.85271,
    "city": "Mumbai",
    "pincode": "400016",
    "area": "Mahim",
    "district": "Mumbai City",
    "services": [
      "24x7",
      "home_delivery",
      "online_ordering"
    ],
    "delivery_km": 7,
    "rating": 3.7,
    "verified": true
  },
  {
    "id": "ph33840",
    "name": "1mg Store Mahim 3",
    "lat": 19.048469,
    "lon": 72.841227,
    "city": "Mumbai",
    "pincode": "400016",
    "area": "Mahim",
    "district": "Mumbai City",
    "services": [
      "home_delivery",
      "online_ordering",
      "consultation"
    ],
    "delivery_km": 15,
    "rating": 4.0,
    "verified": true
  },
  {
    "id": "ph90278",
    "name": "MedPlus Worli",
    "lat": 19.009725,
    "lon": 72.823687,
    "city": "Mumbai",
    "pincode": "400018",
    "area": "Worli",
    "district": "Mumbai City",
    "services": [
      "24x7",
      "home_delivery"
    ],
    "delivery_km": 7,
    "rating": 4.8,
    "verified": true
  },
  {
    "id": "ph44860",
    "name": "MediHub Worli 2",
    "lat": 19.014737,
    "lon": 72.805839,
    "city": "Mumbai",
    "pincode": "400018",
    "area": "Worli",
    "district": "Mumbai City",
    "services": [
      "online_ordering",
      "consultation"
    ],
    "delivery_km": 7,
    "rating": 4.5,
    "verified": true
  },
  {
    "id": "ph74468",
    "name": "Sun Pharma Outlet Worli 3",
    "lat": 19.011513,
    "lon": 72.812856,
    "city": "Mumbai",
    "pincode": "400018",
    "area": "Worli",
    "district": "Mumbai City",
    "services": [
      "home_delivery",
      "consultation"
    ],
    "delivery_km": 7,
    "rating": 4.2,
    "verified": true
  },
  {
    "id": "ph92306",
    "name": "Metropolis Healthcare Churchgate",
    "lat": 18.93583,
    "lon": 72.829559,
    "city": "Mumbai",
    "pincode": "400020",
    "area": "Churchgate",
    "district": "Mumbai City",
    "services": [
      "home_delivery",
      "online_ordering",
      "consultation"
    ],
    "delivery_km": 10,
    "rating": 3.8,
    "verified": true
  },
  {
    "id": "ph83954",
    "name": "Apollo Pharmacy Churchgate 2",
    "lat": 18.933703,
    "lon": 72.828286,
    "city": "Mumbai",
    "pincode": "400020",
    "area": "Churchgate",
    "district": "Mumbai City",
    "services": [
      "home_delivery"
    ],
    "delivery_km": 7,
    "rating": 3.9,
    "verified": false
  },
  {
    "id": "ph87741",
    "name": "PharmaOne Churchgate 3",
    "lat": 18.933381,
    "lon": 72.823365,
    "city": "Mumbai",
    "pincode": "400020",
    "area": "Churchgate",
    "district": "Mumbai City",
    "services": [
      "home_delivery",
      "online_ordering",
      "consultation"
    ],
    "delivery_km": 5,
    "rating": 3.9,
    "verified": true
  },
  {
    "id": "ph63781",
    "name": "PharmaOne Colaba",
    "lat": 18.919697,
    "lon": 72.81819,
    "city": "Mumbai",
    "pincode": "400021",
    "area": "Colaba Navy Nagar",
    "district": "Mumbai City",
    "services": [
      "online_ordering",
      "consultation"
    ],
    "delivery_km": 7,
    "rating": 4.5,
    "verified": true
  },
  {
    "id": "ph49717",
    "name": "Metropolis Healthcare Colaba 2",
    "lat": 18.913893,
    "lon": 72.820532,
    "city": "Mumbai",
    "pincode": "400021",
    "area": "Colaba Navy Nagar",
    "district": "Mumbai City",
    "services": [
      "24x7",
      "home_delivery"
    ],
    "delivery_km": 5,
    "rating": 4.9,
    "verified": true
  },
  {
    "id": "ph19632",
    "name": "PharmaOne Colaba 3",
    "lat": 18.902242,
    "lon": 72.822024,
    "city": "Mumbai",
    "pincode": "400021",
    "area": "Colaba Navy Nagar",
    "district": "Mumbai City",
    "services": [
      "24x7",
      "home_delivery",
      "online_ordering"
    ],
    "delivery_km": 7,
    "rating": 4.8,
    "verified": false
  },
  {
    "id": "ph80213",
    "name": "LifeCare Chemist Sion",
    "lat": 19.037309,
    "lon": 72.86586,
    "city": "Mumbai",
    "pincode": "400022",
    "area": "Sion",
    "district": "Mumbai City",
    "services": [
      "24x7",
      "home_delivery"
    ],
    "delivery_km": 10,
    "rating": 3.8,
    "verified": false
  },
  {
    "id": "ph67329",
    "name": "CureWell Sion 2",
    "lat": 19.043605,
    "lon": 72.853989,
    "city": "Mumbai",
    "pincode": "400022",
    "area": "Sion",
    "district": "Mumbai City",
    "services": [
      "24x7",
      "home_delivery",
      "online_ordering"
    ],
    "delivery_km": 10,
    "rating": 4.6,
    "verified": true
  },
  {
    "id": "ph31711",
    "name": "Netmeds Pharmacy Sion 3",
    "lat": 19.041359,
    "lon": 72.860386,
    "city": "Mumbai",
    "pincode": "400022",
    "area": "Sion",
    "district": "Mumbai City",
    "services": [
      "home_delivery"
    ],
    "delivery_km": 5,
    "rating": 3.7,
    "verified": true
  },
  {
    "id": "ph91224",
    "name": "MedPlus Kurla",
    "lat": 19.069265,
    "lon": 72.893314,
    "city": "Mumbai",
    "pincode": "400024",
    "area": "Kurla",
    "district": "Mumbai Suburban",
    "services": [
      "home_delivery"
    ],
    "delivery_km": 5,
    "rating": 4.4,
    "verified": true
  },
  {
    "id": "ph46835",
    "name": "Dr Reddys Kurla 2",
    "lat": 19.078354,
    "lon": 72.892689,
    "city": "Mumbai",
    "pincode": "400024",
    "area": "Kurla",
    "district": "Mumbai Suburban",
    "services": [
      "home_delivery"
    ],
    "delivery_km": 15,
    "rating": 4.9,
    "verified": true
  },
  {
    "id": "ph52094",
    "name": "Netmeds Pharmacy Kurla 3",
    "lat": 19.082589,
    "lon": 72.874569,
    "city": "Mumbai",
    "pincode": "400024",
    "area": "Kurla",
    "district": "Mumbai Suburban",
    "services": [
      "home_delivery",
      "consultation"
    ],
    "delivery_km": 15,
    "rating": 4.0,
    "verified": false
  },
  {
    "id": "ph20892",
    "name": "MediHub Prabhadevi",
    "lat": 19.01341,
    "lon": 72.827179,
    "city": "Mumbai",
    "pincode": "400025",
    "area": "Prabhadevi",
    "district": "Mumbai City",
    "services": [
      "online_ordering",
      "consultation"
    ],
    "delivery_km": 10,
    "rating": 4.9,
    "verified": true
  },
  {
    "id": "ph72011",
    "name": "CureWell Prabhadevi 2",
    "lat": 19.020164,
    "lon": 72.822132,
    "city": "Mumbai",
    "pincode": "400025",
    "area": "Prabhadevi",
    "district": "Mumbai City",
    "services": [
      "24x7",
      "home_delivery",
      "online_ordering"
    ],
    "delivery_km": 15,
    "rating": 4.6,
    "verified": true
  },
  {
    "id": "ph52260",
    "name": "Apollo Pharmacy Prabhadevi 3",
    "lat": 19.014521,
    "lon": 72.829762,
    "city": "Mumbai",
    "pincode": "400025",
    "area": "Prabhadevi",
    "district": "Mumbai City",
    "services": [
      "home_delivery",
      "online_ordering",
      "consultation"
    ],
    "delivery_km": 5,
    "rating": 4.2,
    "verified": true
  },
  {
    "id": "ph68477",
    "name": "HealthFirst Dadar",
    "lat": 19.024862,
    "lon": 72.844013,
    "city": "Mumbai",
    "pincode": "400028",
    "area": "Dadar Parsi Colony",
    "district": "Mumbai City",
    "services": [
      "home_delivery",
      "consultation"
    ],
    "delivery_km": 5,
    "rating": 4.0,
    "verified": true
  },
  {
    "id": "ph35208",
    "name": "Dr Reddys Dadar 2",
    "lat": 19.016153,
    "lon": 72.833141,
    "city": "Mumbai",
    "pincode": "400028",
    "area": "Dadar Parsi Colony",
    "district": "Mumbai City",
    "services": [
      "home_delivery",
      "consultation"
    ],
    "delivery_km": 7,
    "rating": 4.9,
    "verified": false
  },
  {
    "id": "ph65844",
    "name": "1mg Store Dadar 3",
    "lat": 19.027479,
    "lon": 72.844676,
    "city": "Mumbai",
    "pincode": "400028",
    "area": "Dadar Parsi Colony",
    "district": "Mumbai City",
    "services": [
      "home_delivery",
      "online_ordering",
      "consultation"
    ],
    "delivery_km": 5,
    "rating": 4.7,
    "verified": true
  },
  {
    "id": "ph80812",
    "name": "CureWell Santacruz",
    "lat": 19.081109,
    "lon": 72.853726,
    "city": "Mumbai",
    "pincode": "400049",
    "area": "Santacruz East",
    "district": "Mumbai Suburban",
    "services": [
      "home_delivery",
      "consultation"
    ],
    "delivery_km": 7,
    "rating": 3.8,
    "verified": true
  },
  {
    "id": "ph30093",
    "name": "Apollo Pharmacy Santacruz 2",
    "lat": 19.071012,
    "lon": 72.847372,
    "city": "Mumbai",
    "pincode": "400049",
    "area": "Santacruz East",
    "district": "Mumbai Suburban",
    "services": [
      "home_delivery",
      "online_ordering",
      "consultation"
    ],
    "delivery_km": 10,
    "rating": 3.7,
    "verified": true
  },
  {
    "id": "ph10803",
    "name": "Apollo Pharmacy Santacruz 3",
    "lat": 19.08548,
    "lon": 72.848279,
    "city": "Mumbai",
    "pincode": "400049",
    "area": "Santacruz East",
    "district": "Mumbai Suburban",
    "services": [
      "home_delivery",
      "online_ordering",
      "consultation"
    ],
    "delivery_km": 10,
    "rating": 4.2,
    "verified": true
  },
  {
    "id": "ph47077",
    "name": "Sanjeevani Medical Bandra",
    "lat": 19.054672,
    "lon": 72.839968,
    "city": "Mumbai",
    "pincode": "400050",
    "area": "Bandra",
    "district": "Mumbai Suburban",
    "services": [
      "home_delivery",
      "online_ordering",
      "consultation"
    ],
    "delivery_km": 15,
    "rating": 4.4,
    "verified": true
  },
  {
    "id": "ph73130",
    "name": "CureWell Bandra 2",
    "lat": 19.056729,
    "lon": 72.83849,
    "city": "Mumbai",
    "pincode": "400050",
    "area": "Bandra",
    "district": "Mumbai Suburban",
    "services": [
      "online_ordering",
      "consultation"
    ],
    "delivery_km": 5,
    "rating": 4.2,
    "verified": true
  },
  {
    "id": "ph88117",
    "name": "Sanjeevani Medical Bandra 3",
    "lat": 19.061456,
    "lon": 72.824618,
    "city": "Mumbai",
    "pincode": "400050",
    "area": "Bandra",
    "district": "Mumbai Suburban",
    "services": [
      "online_ordering",
      "consultation"
    ],
    "delivery_km": 10,
    "rating": 5.0,
    "verified": true
  },
  {
    "id": "ph71703",
    "name": "CureWell Bandra",
    "lat": 19.061706,
    "lon": 72.843744,
    "city": "Mumbai",
    "pincode": "400051",
    "area": "Bandra East",
    "district": "Mumbai Suburban",
    "services": [
      "online_ordering",
      "consultation"
    ],
    "delivery_km": 7,
    "rating": 4.0,
    "verified": false
  },
  {
    "id": "ph45289",
    "name": "LifeCare Chemist Bandra 2",
    "lat": 19.063336,
    "lon": 72.831581,
    "city": "Mumbai",
    "pincode": "400051",
    "area": "Bandra East",
    "district": "Mumbai Suburban",
    "services": [
      "home_delivery",
      "consultation"
    ],
    "delivery_km": 7,
    "rating": 3.8,
    "verified": true
  },
  {
    "id": "ph67250",
    "name": "VitalRx Bandra 3",
    "lat": 19.066312,
    "lon": 72.853381,
    "city": "Mumbai",
    "pincode": "400051",
    "area": "Bandra East",
    "district": "Mumbai Suburban",
    "services": [
      "home_delivery"
    ],
    "delivery_km": 15,
    "rating": 4.4,
    "verified": true
  },
  {
    "id": "ph80357",
    "name": "LifeCare Chemist Bandra",
    "lat": 19.056615,
    "lon": 72.829989,
    "city": "Mumbai",
    "pincode": "400052",
    "area": "Bandra West",
    "district": "Mumbai Suburban",
    "services": [
      "online_ordering",
      "consultation"
    ],
    "delivery_km": 7,
    "rating": 3.8,
    "verified": true
  },
  {
    "id": "ph99248",
    "name": "HealthBuddy Bandra 2",
    "lat": 19.061751,
    "lon": 72.827912,
    "city": "Mumbai",
    "pincode": "400052",
    "area": "Bandra West",
    "district": "Mumbai Suburban",
    "services": [
      "24x7",
      "home_delivery"
    ],
    "delivery_km": 10,
    "rating": 5.0,
    "verified": false
  },
  {
    "id": "ph27655",
    "name": "PharmaOne Bandra 3",
    "lat": 19.047773,
    "lon": 72.825954,
    "city": "Mumbai",
    "pincode": "400052",
    "area": "Bandra West",
    "district": "Mumbai Suburban",
    "services": [
      "24x7",
      "home_delivery",
      "online_ordering"
    ],
    "delivery_km": 10,
    "rating": 4.7,
    "verified": true
  },
  {
    "id": "ph31842",
    "name": "Fortis Pharmacy Santacruz",
    "lat": 19.094615,
    "lon": 72.850427,
    "city": "Mumbai",
    "pincode": "400053",
    "area": "Santacruz East",
    "district": "Mumbai Suburban",
    "services": [
      "home_delivery",
      "consultation"
    ],
    "delivery_km": 5,
    "rating": 3.9,
    "verified": true
  },
  {
    "id": "ph47472",
    "name": "Dr Reddys Santacruz 2",
    "lat": 19.081815,
    "lon": 72.847643,
    "city": "Mumbai",
    "pincode": "400053",
    "area": "Santacruz East",
    "district": "Mumbai Suburban",
    "services": [
      "online_ordering",
      "consultation"
    ],
    "delivery_km": 7,
    "rating": 4.4,
    "verified": true
  },
  {
    "id": "ph95609",
    "name": "Sanjeevani Medical Santacruz 3",
    "lat": 19.091135,
    "lon": 72.855415,
    "city": "Mumbai",
    "pincode": "400053",
    "area": "Santacruz East",
    "district": "Mumbai Suburban",
    "services": [
      "home_delivery",
      "consultation"
    ],
    "delivery_km": 7,
    "rating": 4.4,
    "verified": true
  },
  {
    "id": "ph36515",
    "name": "Metropolis Healthcare Santacruz",
    "lat": 19.091507,
    "lon": 72.830523,
    "city": "Mumbai",
    "pincode": "400054",
    "area": "Santacruz West",
    "district": "Mumbai Suburban",
    "services": [
      "home_delivery"
    ],
    "delivery_km": 7,
    "rating": 4.9,
    "verified": false
  },
  {
    "id": "ph73723",
    "name": "1mg Store Santacruz 2",
    "lat": 19.077559,
    "lon": 72.836406,
    "city": "Mumbai",
    "pincode": "400054",
    "area": "Santacruz West",
    "district": "Mumbai Suburban",
    "services": [
      "online_ordering",
      "consultation"
    ],
    "delivery_km": 10,
    "rating": 3.5,
    "verified": true
  },
  {
    "id": "ph54707",
    "name": "Apollo Pharmacy Santacruz 3",
    "lat": 19.082247,
    "lon": 72.837086,
    "city": "Mumbai",
    "pincode": "400054",
    "area": "Santacruz West",
    "district": "Mumbai Suburban",
    "services": [
      "24x7",
      "home_delivery"
    ],
    "delivery_km": 15,
    "rating": 3.5,
    "verified": true
  },
  {
    "id": "ph11250",
    "name": "Sanjeevani Medical Vile",
    "lat": 19.093631,
    "lon": 72.859935,
    "city": "Mumbai",
    "pincode": "400055",
    "area": "Vile Parle East",
    "district": "Mumbai Suburban",
    "services": [
      "online_ordering",
      "consultation"
    ],
    "delivery_km": 7,
    "rating": 4.4,
    "verified": true
  },
  {
    "id": "ph65636",
    "name": "MediMax Vile 2",
    "lat": 19.098509,
    "lon": 72.852567,
    "city": "Mumbai",
    "pincode": "400055",
    "area": "Vile Parle East",
    "district": "Mumbai Suburban",
    "services": [
      "home_delivery"
    ],
    "delivery_km": 5,
    "rating": 3.9,
    "verified": true
  },
  {
    "id": "ph48724",
    "name": "Metropolis Healthcare Vile 3",
    "lat": 19.091569,
    "lon": 72.857152,
    "city": "Mumbai",
    "pincode": "400055",
    "area": "Vile Parle East",
    "district": "Mumbai Suburban",
    "services": [
      "home_delivery",
      "consultation"
    ],
    "delivery_km": 15,
    "rating": 3.6,
    "verified": false
  },
  {
    "id": "ph31340",
    "name": "CarePlus Pharmacy Vile",
    "lat": 19.103732,
    "lon": 72.83775,
    "city": "Mumbai",
    "pincode": "400056",
    "area": "Vile Parle West",
    "district": "Mumbai Suburban",
    "services": [
      "home_delivery",
      "consultation"
    ],
    "delivery_km": 15,
    "rating": 5.0,
    "verified": true
  },
  {
    "id": "ph97289",
    "name": "Fortis Pharmacy Vile 2",
    "lat": 19.106452,
    "lon": 72.844746,
    "city": "Mumbai",
    "pincode": "400056",
    "area": "Vile Parle West",
    "district": "Mumbai Suburban",
    "services": [
      "24x7",
      "home_delivery"
    ],
    "delivery_km": 10,
    "rating": 4.6,
    "verified": true
  },
  {
    "id": "ph77485",
    "name": "HealthFirst Vile 3",
    "lat": 19.115649,
    "lon": 72.839192,
    "city": "Mumbai",
    "pincode": "400056",
    "area": "Vile Parle West",
    "district": "Mumbai Suburban",
    "services": [
      "24x7",
      "home_delivery",
      "online_ordering"
    ],
    "delivery_km": 15,
    "rating": 5.0,
    "verified": true
  },
  {
    "id": "ph87616",
    "name": "HealthFirst Andheri",
    "lat": 19.121908,
    "lon": 72.876985,
    "city": "Mumbai",
    "pincode": "400058",
    "area": "Andheri East",
    "district": "Mumbai Suburban",
    "services": [
      "online_ordering",
      "consultation"
    ],
    "delivery_km": 7,
    "rating": 4.3,
    "verified": true
  },
  {
    "id": "ph13001",
    "name": "PharmaOne Andheri 2",
    "lat": 19.120116,
    "lon": 72.875126,
    "city": "Mumbai",
    "pincode": "400058",
    "area": "Andheri East",
    "district": "Mumbai Suburban",
    "services": [
      "home_delivery",
      "online_ordering",
      "consultation"
    ],
    "delivery_km": 7,
    "rating": 4.1,
    "verified": true
  },
  {
    "id": "ph81543",
    "name": "VitalRx Andheri 3",
    "lat": 19.115335,
    "lon": 72.85907,
    "city": "Mumbai",
    "pincode": "400058",
    "area": "Andheri East",
    "district": "Mumbai Suburban",
    "services": [
      "home_delivery"
    ],
    "delivery_km": 7,
    "rating": 5.0,
    "verified": true
  },
  {
    "id": "ph60905",
    "name": "1mg Store Andheri",
    "lat": 19.118584,
    "lon": 72.874307,
    "city": "Mumbai",
    "pincode": "400059",
    "area": "Andheri East MIDC",
    "district": "Mumbai Suburban",
    "services": [
      "home_delivery",
      "consultation"
    ],
    "delivery_km": 15,
    "rating": 3.6,
    "verified": true
  },
  {
    "id": "ph97295",
    "name": "LifeCare Chemist Andheri 2",
    "lat": 19.112354,
    "lon": 72.86569,
    "city": "Mumbai",
    "pincode": "400059",
    "area": "Andheri East MIDC",
    "district": "Mumbai Suburban",
    "services": [
      "24x7",
      "home_delivery"
    ],
    "delivery_km": 10,
    "rating": 3.7,
    "verified": true
  },
  {
    "id": "ph78154",
    "name": "LifeCare Chemist Andheri 3",
    "lat": 19.118524,
    "lon": 72.878263,
    "city": "Mumbai",
    "pincode": "400059",
    "area": "Andheri East MIDC",
    "district": "Mumbai Suburban",
    "services": [
      "home_delivery",
      "online_ordering",
      "consultation"
    ],
    "delivery_km": 10,
    "rating": 3.9,
    "verified": false
  },
  {
    "id": "ph78274",
    "name": "1mg Store Andheri",
    "lat": 19.113715,
    "lon": 72.857536,
    "city": "Mumbai",
    "pincode": "400061",
    "area": "Andheri West",
    "district": "Mumbai Suburban",
    "services": [
      "24x7",
      "home_delivery",
      "online_ordering"
    ],
    "delivery_km": 15,
    "rating": 4.3,
    "verified": true
  },
  {
    "id": "ph20097",
    "name": "MediMax Andheri 2",
    "lat": 19.129201,
    "lon": 72.855888,
    "city": "Mumbai",
    "pincode": "400061",
    "area": "Andheri West",
    "district": "Mumbai Suburban",
    "services": [
      "home_delivery"
    ],
    "delivery_km": 15,
    "rating": 4.5,
    "verified": true
  },
  {
    "id": "ph85526",
    "name": "Fortis Pharmacy Andheri 3",
    "lat": 19.117584,
    "lon": 72.839979,
    "city": "Mumbai",
    "pincode": "400061",
    "area": "Andheri West",
    "district": "Mumbai Suburban",
    "services": [
      "24x7",
      "home_delivery",
      "online_ordering"
    ],
    "delivery_km": 5,
    "rating": 4.5,
    "verified": false
  },
  {
    "id": "ph11154",
    "name": "HealthFirst Goregaon",
    "lat": 19.16822,
    "lon": 72.876606,
    "city": "Mumbai",
    "pincode": "400062",
    "area": "Goregaon East",
    "district": "Mumbai Suburban",
    "services": [
      "home_delivery",
      "online_ordering",
      "consultation"
    ],
    "delivery_km": 10,
    "rating": 3.9,
    "verified": true
  },
  {
    "id": "ph43185",
    "name": "Netmeds Pharmacy Goregaon 2",
    "lat": 19.166246,
    "lon": 72.865653,
    "city": "Mumbai",
    "pincode": "400062",
    "area": "Goregaon East",
    "district": "Mumbai Suburban",
    "services": [
      "home_delivery"
    ],
    "delivery_km": 10,
    "rating": 3.6,
    "verified": true
  },
  {
    "id": "ph78238",
    "name": "MediHub Goregaon 3",
    "lat": 19.170538,
    "lon": 72.869281,
    "city": "Mumbai",
    "pincode": "400062",
    "area": "Goregaon East",
    "district": "Mumbai Suburban",
    "services": [
      "24x7",
      "home_delivery"
    ],
    "delivery_km": 10,
    "rating": 3.8,
    "verified": false
  },
  {
    "id": "ph97836",
    "name": "PharmaOne Goregaon",
    "lat": 19.159547,
    "lon": 72.861732,
    "city": "Mumbai",
    "pincode": "400063",
    "area": "Goregaon West",
    "district": "Mumbai Suburban",
    "services": [
      "24x7",
      "home_delivery"
    ],
    "delivery_km": 15,
    "rating": 4.9,
    "verified": true
  },
  {
    "id": "ph51888",
    "name": "HealthFirst Goregaon 2",
    "lat": 19.165228,
    "lon": 72.852229,
    "city": "Mumbai",
    "pincode": "400063",
    "area": "Goregaon West",
    "district": "Mumbai Suburban",
    "services": [
      "home_delivery"
    ],
    "delivery_km": 7,
    "rating": 4.6,
    "verified": false
  },
  {
    "id": "ph49324",
    "name": "HealthFirst Goregaon 3",
    "lat": 19.162669,
    "lon": 72.853481,
    "city": "Mumbai",
    "pincode": "400063",
    "area": "Goregaon West",
    "district": "Mumbai Suburban",
    "services": [
      "home_delivery"
    ],
    "delivery_km": 15,
    "rating": 4.3,
    "verified": true
  },
  {
    "id": "ph38685",
    "name": "Fortis Pharmacy Malad",
    "lat": 19.186253,
    "lon": 72.850672,
    "city": "Mumbai",
    "pincode": "400064",
    "area": "Malad East",
    "district": "Mumbai Suburban",
    "services": [
      "online_ordering",
      "consultation"
    ],
    "delivery_km": 15,
    "rating": 4.0,
    "verified": true
  },
  {
    "id": "ph86686",
    "name": "HealthFirst Malad 2",
    "lat": 19.179826,
    "lon": 72.844836,
    "city": "Mumbai",
    "pincode": "400064",
    "area": "Malad East",
    "district": "Mumbai Suburban",
    "services": [
      "24x7",
      "home_delivery",
      "online_ordering"
    ],
    "delivery_km": 15,
    "rating": 4.4,
    "verified": false
  },
  {
    "id": "ph35227",
    "name": "Sanjeevani Medical Malad 3",
    "lat": 19.190427,
    "lon": 72.848266,
    "city": "Mumbai",
    "pincode": "400064",
    "area": "Malad East",
    "district": "Mumbai Suburban",
    "services": [
      "online_ordering",
      "consultation"
    ],
    "delivery_km": 5,
    "rating": 3.6,
    "verified": true
  },
  {
    "id": "ph78725",
    "name": "1mg Store Goregaon",
    "lat": 19.158935,
    "lon": 72.890887,
    "city": "Mumbai",
    "pincode": "400065",
    "area": "Goregaon East Film City",
    "district": "Mumbai Suburban",
    "services": [
      "home_delivery"
    ],
    "delivery_km": 7,
    "rating": 3.5,
    "verified": true
  },
  {
    "id": "ph75501",
    "name": "MedPlus Goregaon 2",
    "lat": 19.165127,
    "lon": 72.878076,
    "city": "Mumbai",
    "pincode": "400065",
    "area": "Goregaon East Film City",
    "district": "Mumbai Suburban",
    "services": [
      "home_delivery"
    ],
    "delivery_km": 7,
    "rating": 4.2,
    "verified": true
  },
  {
    "id": "ph59977",
    "name": "Dr Reddys Goregaon 3",
    "lat": 19.16183,
    "lon": 72.882928,
    "city": "Mumbai",
    "pincode": "400065",
    "area": "Goregaon East Film City",
    "district": "Mumbai Suburban",
    "services": [
      "home_delivery",
      "consultation"
    ],
    "delivery_km": 7,
    "rating": 3.5,
    "verified": true
  },
  {
    "id": "ph93098",
    "name": "Sanjeevani Medical Borivali",
    "lat": 19.235447,
    "lon": 72.84293,
    "city": "Mumbai",
    "pincode": "400066",
    "area": "Borivali West",
    "district": "Mumbai Suburban",
    "services": [
      "home_delivery",
      "consultation"
    ],
    "delivery_km": 5,
    "rating": 3.8,
    "verified": true
  },
  {
    "id": "ph41193",
    "name": "HealthFirst Borivali 2",
    "lat": 19.242465,
    "lon": 72.84304,
    "city": "Mumbai",
    "pincode": "400066",
    "area": "Borivali West",
    "district": "Mumbai Suburban",
    "services": [
      "home_delivery",
      "consultation"
    ],
    "delivery_km": 10,
    "rating": 3.7,
    "verified": true
  },
  {
    "id": "ph45182",
    "name": "HealthFirst Borivali 3",
    "lat": 19.242246,
    "lon": 72.840779,
    "city": "Mumbai",
    "pincode": "400066",
    "area": "Borivali West",
    "district": "Mumbai Suburban",
    "services": [
      "home_delivery"
    ],
    "delivery_km": 5,
    "rating": 4.5,
    "verified": false
  },
  {
    "id": "ph41738",
    "name": "Apollo Pharmacy Kandivali",
    "lat": 19.215582,
    "lon": 72.828083,
    "city": "Mumbai",
    "pincode": "400067",
    "area": "Kandivali West",
    "district": "Mumbai Suburban",
    "services": [
      "24x7",
      "home_delivery"
    ],
    "delivery_km": 7,
    "rating": 4.5,
    "verified": true
  },
  {
    "id": "ph30179",
    "name": "Fortis Pharmacy Kandivali 2",
    "lat": 19.198663,
    "lon": 72.835485,
    "city": "Mumbai",
    "pincode": "400067",
    "area": "Kandivali West",
    "district": "Mumbai Suburban",
    "services": [
      "online_ordering",
      "consultation"
    ],
    "delivery_km": 15,
    "rating": 4.4,
    "verified": true
  },
  {
    "id": "ph45313",
    "name": "Wellness Forever Kandivali 3",
    "lat": 19.209176,
    "lon": 72.837883,
    "city": "Mumbai",
    "pincode": "400067",
    "area": "Kandivali West",
    "district": "Mumbai Suburban",
    "services": [
      "home_delivery",
      "consultation"
    ],
    "delivery_km": 10,
    "rating": 3.7,
    "verified": true
  },
  {
    "id": "ph17887",
    "name": "Wellness Forever Dahisar",
    "lat": 19.265399,
    "lon": 72.863737,
    "city": "Mumbai",
    "pincode": "400068",
    "area": "Dahisar East",
    "district": "Mumbai Suburban",
    "services": [
      "home_delivery",
      "online_ordering",
      "consultation"
    ],
    "delivery_km": 10,
    "rating": 4.3,
    "verified": true
  },
  {
    "id": "ph48548",
    "name": "Wellness Forever Dahisar 2",
    "lat": 19.25013,
    "lon": 72.863051,
    "city": "Mumbai",
    "pincode": "400068",
    "area": "Dahisar East",
    "district": "Mumbai Suburban",
    "services": [
      "online_ordering",
      "consultation"
    ],
    "delivery_km": 7,
    "rating": 4.5,
    "verified": true
  },
  {
    "id": "ph54947",
    "name": "CureWell Dahisar 3",
    "lat": 19.264081,
    "lon": 72.86154,
    "city": "Mumbai",
    "pincode": "400068",
    "area": "Dahisar East",
    "district": "Mumbai Suburban",
    "services": [
      "home_delivery"
    ],
    "delivery_km": 7,
    "rating": 4.5,
    "verified": false
  },
  {
    "id": "ph53394",
    "name": "HealthBuddy Andheri",
    "lat": 19.132289,
    "lon": 72.846225,
    "city": "Mumbai",
    "pincode": "400069",
    "area": "Andheri West",
    "district": "Mumbai Suburban",
    "services": [
      "online_ordering",
      "consultation"
    ],
    "delivery_km": 10,
    "rating": 4.8,
    "verified": false
  },
  {
    "id": "ph47165",
    "name": "CureWell Andheri 2",
    "lat": 19.140161,
    "lon": 72.829291,
    "city": "Mumbai",
    "pincode": "400069",
    "area": "Andheri West",
    "district": "Mumbai Suburban",
    "services": [
      "home_delivery",
      "consultation"
    ],
    "delivery_km": 15,
    "rating": 4.1,
    "verified": true
  },
  {
    "id": "ph83306",
    "name": "Apollo Pharmacy Andheri 3",
    "lat": 19.141691,
    "lon": 72.835605,
    "city": "Mumbai",
    "pincode": "400069",
    "area": "Andheri West",
    "district": "Mumbai Suburban",
    "services": [
      "24x7",
      "home_delivery",
      "online_ordering"
    ],
    "delivery_km": 15,
    "rating": 4.1,
    "verified": true
  },
  {
    "id": "ph70632",
    "name": "Apollo Pharmacy Powai",
    "lat": 19.114267,
    "lon": 72.892757,
    "city": "Mumbai",
    "pincode": "400070",
    "area": "Powai",
    "district": "Mumbai Suburban",
    "services": [
      "24x7",
      "home_delivery",
      "online_ordering"
    ],
    "delivery_km": 5,
    "rating": 4.1,
    "verified": true
  },
  {
    "id": "ph99354",
    "name": "CarePlus Pharmacy Powai 2",
    "lat": 19.120264,
    "lon": 72.908073,
    "city": "Mumbai",
    "pincode": "400070",
    "area": "Powai",
    "district": "Mumbai Suburban",
    "services": [
      "online_ordering",
      "consultation"
    ],
    "delivery_km": 5,
    "rating": 4.9,
    "verified": true
  },
  {
    "id": "ph51297",
    "name": "Dr Reddys Powai 3",
    "lat": 19.12519,
    "lon": 72.905794,
    "city": "Mumbai",
    "pincode": "400070",
    "area": "Powai",
    "district": "Mumbai Suburban",
    "services": [
      "home_delivery"
    ],
    "delivery_km": 7,
    "rating": 3.7,
    "verified": true
  },
  {
    "id": "ph66992",
    "name": "VitalRx Chembur",
    "lat": 19.055256,
    "lon": 72.900117,
    "city": "Mumbai",
    "pincode": "400071",
    "area": "Chembur",
    "district": "Mumbai Suburban",
    "services": [
      "home_delivery",
      "online_ordering",
      "consultation"
    ],
    "delivery_km": 7,
    "rating": 3.6,
    "verified": false
  },
  {
    "id": "ph68514",
    "name": "HealthFirst Chembur 2",
    "lat": 19.037973,
    "lon": 72.895925,
    "city": "Mumbai",
    "pincode": "400071",
    "area": "Chembur",
    "district": "Mumbai Suburban",
    "services": [
      "online_ordering",
      "consultation"
    ],
    "delivery_km": 15,
    "rating": 4.5,
    "verified": true
  },
  {
    "id": "ph74948",
    "name": "Apollo Pharmacy Chembur 3",
    "lat": 19.057457,
    "lon": 72.900758,
    "city": "Mumbai",
    "pincode": "400071",
    "area": "Chembur",
    "district": "Mumbai Suburban",
    "services": [
      "24x7",
      "home_delivery",
      "online_ordering"
    ],
    "delivery_km": 15,
    "rating": 3.7,
    "verified": false
  },
  {
    "id": "ph74800",
    "name": "HealthBuddy Andheri",
    "lat": 19.114076,
    "lon": 72.864176,
    "city": "Mumbai",
    "pincode": "400072",
    "area": "Andheri East",
    "district": "Mumbai Suburban",
    "services": [
      "24x7",
      "home_delivery"
    ],
    "delivery_km": 10,
    "rating": 3.9,
    "verified": true
  },
  {
    "id": "ph14077",
    "name": "HealthFirst Andheri 2",
    "lat": 19.107629,
    "lon": 72.878908,
    "city": "Mumbai",
    "pincode": "400072",
    "area": "Andheri East",
    "district": "Mumbai Suburban",
    "services": [
      "home_delivery",
      "online_ordering",
      "consultation"
    ],
    "delivery_km": 5,
    "rating": 4.9,
    "verified": true
  },
  {
    "id": "ph23155",
    "name": "HealthFirst Andheri 3",
    "lat": 19.108443,
    "lon": 72.878998,
    "city": "Mumbai",
    "pincode": "400072",
    "area": "Andheri East",
    "district": "Mumbai Suburban",
    "services": [
      "online_ordering",
      "consultation"
    ],
    "delivery_km": 7,
    "rating": 3.6,
    "verified": true
  },
  {
    "id": "ph21795",
    "name": "VitalRx Chembur",
    "lat": 19.064071,
    "lon": 72.908998,
    "city": "Mumbai",
    "pincode": "400074",
    "area": "Chembur Colony",
    "district": "Mumbai Suburban",
    "services": [
      "home_delivery",
      "consultation"
    ],
    "delivery_km": 10,
    "rating": 4.1,
    "verified": false
  },
  {
    "id": "ph19020",
    "name": "Metropolis Healthcare Chembur 2",
    "lat": 19.065373,
    "lon": 72.902765,
    "city": "Mumbai",
    "pincode": "400074",
    "area": "Chembur Colony",
    "district": "Mumbai Suburban",
    "services": [
      "24x7",
      "home_delivery",
      "online_ordering"
    ],
    "delivery_km": 10,
    "rating": 4.2,
    "verified": true
  },
  {
    "id": "ph41942",
    "name": "Sun Pharma Outlet Chembur 3",
    "lat": 19.062583,
    "lon": 72.904483,
    "city": "Mumbai",
    "pincode": "400074",
    "area": "Chembur Colony",
    "district": "Mumbai Suburban",
    "services": [
      "24x7",
      "home_delivery",
      "online_ordering"
    ],
    "delivery_km": 10,
    "rating": 4.6,
    "verified": true
  },
  {
    "id": "ph77280",
    "name": "HealthFirst Ghatkopar",
    "lat": 19.089277,
    "lon": 72.910939,
    "city": "Mumbai",
    "pincode": "400075",
    "area": "Ghatkopar West",
    "district": "Mumbai Suburban",
    "services": [
      "online_ordering",
      "consultation"
    ],
    "delivery_km": 5,
    "rating": 3.6,
    "verified": false
  },
  {
    "id": "ph76647",
    "name": "HealthFirst Ghatkopar 2",
    "lat": 19.082282,
    "lon": 72.906748,
    "city": "Mumbai",
    "pincode": "400075",
    "area": "Ghatkopar West",
    "district": "Mumbai Suburban",
    "services": [
      "home_delivery"
    ],
    "delivery_km": 15,
    "rating": 3.8,
    "verified": false
  },
  {
    "id": "ph58910",
    "name": "Wellness Forever Ghatkopar 3",
    "lat": 19.079871,
    "lon": 72.902953,
    "city": "Mumbai",
    "pincode": "400075",
    "area": "Ghatkopar West",
    "district": "Mumbai Suburban",
    "services": [
      "home_delivery"
    ],
    "delivery_km": 10,
    "rating": 4.8,
    "verified": true
  },
  {
    "id": "ph14677",
    "name": "Netmeds Pharmacy Ghatkopar",
    "lat": 19.088627,
    "lon": 72.902828,
    "city": "Mumbai",
    "pincode": "400077",
    "area": "Ghatkopar East",
    "district": "Mumbai Suburban",
    "services": [
      "24x7",
      "home_delivery"
    ],
    "delivery_km": 15,
    "rating": 4.9,
    "verified": true
  },
  {
    "id": "ph63539",
    "name": "Dr Reddys Ghatkopar 2",
    "lat": 19.078545,
    "lon": 72.910755,
    "city": "Mumbai",
    "pincode": "400077",
    "area": "Ghatkopar East",
    "district": "Mumbai Suburban",
    "services": [
      "24x7",
      "home_delivery",
      "online_ordering"
    ],
    "delivery_km": 15,
    "rating": 4.9,
    "verified": false
  },
  {
    "id": "ph67506",
    "name": "HealthFirst Ghatkopar 3",
    "lat": 19.080515,
    "lon": 72.908677,
    "city": "Mumbai",
    "pincode": "400077",
    "area": "Ghatkopar East",
    "district": "Mumbai Suburban",
    "services": [
      "home_delivery",
      "online_ordering",
      "consultation"
    ],
    "delivery_km": 10,
    "rating": 4.9,
    "verified": true
  },
  {
    "id": "ph23733",
    "name": "PharmaOne Ghatkopar",
    "lat": 19.088037,
    "lon": 72.902311,
    "city": "Mumbai",
    "pincode": "400078",
    "area": "Ghatkopar",
    "district": "Mumbai Suburban",
    "services": [
      "24x7",
      "home_delivery",
      "online_ordering"
    ],
    "delivery_km": 5,
    "rating": 3.6,
    "verified": true
  },
  {
    "id": "ph76646",
    "name": "Wellness Forever Ghatkopar 2",
    "lat": 19.089499,
    "lon": 72.898673,
    "city": "Mumbai",
    "pincode": "400078",
    "area": "Ghatkopar",
    "district": "Mumbai Suburban",
    "services": [
      "home_delivery",
      "consultation"
    ],
    "delivery_km": 7,
    "rating": 4.5,
    "verified": false
  },
  {
    "id": "ph66801",
    "name": "PharmEasy Store Ghatkopar 3",
    "lat": 19.090608,
    "lon": 72.904673,
    "city": "Mumbai",
    "pincode": "400078",
    "area": "Ghatkopar",
    "district": "Mumbai Suburban",
    "services": [
      "home_delivery",
      "online_ordering",
      "consultation"
    ],
    "delivery_km": 10,
    "rating": 4.8,
    "verified": true
  },
  {
    "id": "ph36688",
    "name": "PharmEasy Store Chembur",
    "lat": 19.067141,
    "lon": 72.89704,
    "city": "Mumbai",
    "pincode": "400079",
    "area": "Chembur",
    "district": "Mumbai Suburban",
    "services": [
      "home_delivery",
      "consultation"
    ],
    "delivery_km": 15,
    "rating": 4.0,
    "verified": true
  },
  {
    "id": "ph42501",
    "name": "MediMax Chembur 2",
    "lat": 19.059632,
    "lon": 72.895688,
    "city": "Mumbai",
    "pincode": "400079",
    "area": "Chembur",
    "district": "Mumbai Suburban",
    "services": [
      "home_delivery",
      "online_ordering",
      "consultation"
    ],
    "delivery_km": 5,
    "rating": 4.0,
    "verified": true
  },
  {
    "id": "ph40799",
    "name": "VitalRx Chembur 3",
    "lat": 19.05194,
    "lon": 72.888866,
    "city": "Mumbai",
    "pincode": "400079",
    "area": "Chembur",
    "district": "Mumbai Suburban",
    "services": [
      "24x7",
      "home_delivery",
      "online_ordering"
    ],
    "delivery_km": 7,
    "rating": 3.9,
    "verified": false
  },
  {
    "id": "ph16042",
    "name": "MedPlus Mulund",
    "lat": 19.169589,
    "lon": 72.95361,
    "city": "Mumbai",
    "pincode": "400080",
    "area": "Mulund East",
    "district": "Mumbai Suburban",
    "services": [
      "online_ordering",
      "consultation"
    ],
    "delivery_km": 10,
    "rating": 4.2,
    "verified": true
  },
  {
    "id": "ph95725",
    "name": "Apollo Pharmacy Mulund 2",
    "lat": 19.156939,
    "lon": 72.956055,
    "city": "Mumbai",
    "pincode": "400080",
    "area": "Mulund East",
    "district": "Mumbai Suburban",
    "services": [
      "home_delivery",
      "consultation"
    ],
    "delivery_km": 10,
    "rating": 3.7,
    "verified": true
  },
  {
    "id": "ph65244",
    "name": "MedPlus Mulund 3",
    "lat": 19.160205,
    "lon": 72.956205,
    "city": "Mumbai",
    "pincode": "400080",
    "area": "Mulund East",
    "district": "Mumbai Suburban",
    "services": [
      "home_delivery",
      "consultation"
    ],
    "delivery_km": 5,
    "rating": 3.6,
    "verified": true
  },
  {
    "id": "ph33251",
    "name": "HealthBuddy Mulund",
    "lat": 19.179638,
    "lon": 72.949553,
    "city": "Mumbai",
    "pincode": "400081",
    "area": "Mulund West",
    "district": "Mumbai Suburban",
    "services": [
      "24x7",
      "home_delivery",
      "online_ordering"
    ],
    "delivery_km": 15,
    "rating": 4.5,
    "verified": true
  },
  {
    "id": "ph47191",
    "name": "Apollo Pharmacy Mulund 2",
    "lat": 19.167856,
    "lon": 72.944436,
    "city": "Mumbai",
    "pincode": "400081",
    "area": "Mulund West",
    "district": "Mumbai Suburban",
    "services": [
      "home_delivery"
    ],
    "delivery_km": 15,
    "rating": 3.8,
    "verified": true
  },
  {
    "id": "ph71262",
    "name": "Sun Pharma Outlet Mulund 3",
    "lat": 19.176004,
    "lon": 72.952104,
    "city": "Mumbai",
    "pincode": "400081",
    "area": "Mulund West",
    "district": "Mumbai Suburban",
    "services": [
      "home_delivery",
      "online_ordering",
      "consultation"
    ],
    "delivery_km": 7,
    "rating": 4.8,
    "verified": true
  },
  {
    "id": "ph42359",
    "name": "PharmaOne Mulund",
    "lat": 19.17327,
    "lon": 72.946067,
    "city": "Mumbai",
    "pincode": "400082",
    "area": "Mulund",
    "district": "Mumbai Suburban",
    "services": [
      "24x7",
      "home_delivery",
      "online_ordering"
    ],
    "delivery_km": 10,
    "rating": 3.9,
    "verified": false
  },
  {
    "id": "ph95488",
    "name": "LifeCare Chemist Mulund 2",
    "lat": 19.164544,
    "lon": 72.960205,
    "city": "Mumbai",
    "pincode": "400082",
    "area": "Mulund",
    "district": "Mumbai Suburban",
    "services": [
      "home_delivery",
      "consultation"
    ],
    "delivery_km": 15,
    "rating": 4.7,
    "verified": true
  },
  {
    "id": "ph30936",
    "name": "Fortis Pharmacy Mulund 3",
    "lat": 19.161472,
    "lon": 72.938492,
    "city": "Mumbai",
    "pincode": "400082",
    "area": "Mulund",
    "district": "Mumbai Suburban",
    "services": [
      "home_delivery",
      "consultation"
    ],
    "delivery_km": 5,
    "rating": 4.9,
    "verified": true
  },
  {
    "id": "ph18960",
    "name": "CarePlus Pharmacy Mulund",
    "lat": 19.165266,
    "lon": 72.947272,
    "city": "Mumbai",
    "pincode": "400083",
    "area": "Mulund Colony",
    "district": "Mumbai Suburban",
    "services": [
      "online_ordering",
      "consultation"
    ],
    "delivery_km": 10,
    "rating": 4.1,
    "verified": true
  },
  {
    "id": "ph34954",
    "name": "LifeCare Chemist Mulund 2",
    "lat": 19.178325,
    "lon": 72.93871,
    "city": "Mumbai",
    "pincode": "400083",
    "area": "Mulund Colony",
    "district": "Mumbai Suburban",
    "services": [
      "home_delivery",
      "consultation"
    ],
    "delivery_km": 5,
    "rating": 4.7,
    "verified": false
  },
  {
    "id": "ph26187",
    "name": "Sanjeevani Medical Mulund 3",
    "lat": 19.159237,
    "lon": 72.949196,
    "city": "Mumbai",
    "pincode": "400083",
    "area": "Mulund Colony",
    "district": "Mumbai Suburban",
    "services": [
      "home_delivery"
    ],
    "delivery_km": 5,
    "rating": 3.7,
    "verified": false
  },
  {
    "id": "ph57386",
    "name": "CarePlus Pharmacy Bhandup",
    "lat": 19.137439,
    "lon": 72.938493,
    "city": "Mumbai",
    "pincode": "400084",
    "area": "Bhandup",
    "district": "Mumbai Suburban",
    "services": [
      "home_delivery"
    ],
    "delivery_km": 5,
    "rating": 4.6,
    "verified": true
  },
  {
    "id": "ph77177",
    "name": "PharmEasy Store Bhandup 2",
    "lat": 19.145025,
    "lon": 72.942122,
    "city": "Mumbai",
    "pincode": "400084",
    "area": "Bhandup",
    "district": "Mumbai Suburban",
    "services": [
      "24x7",
      "home_delivery"
    ],
    "delivery_km": 10,
    "rating": 4.3,
    "verified": true
  },
  {
    "id": "ph45798",
    "name": "CarePlus Pharmacy Bhandup 3",
    "lat": 19.142898,
    "lon": 72.940508,
    "city": "Mumbai",
    "pincode": "400084",
    "area": "Bhandup",
    "district": "Mumbai Suburban",
    "services": [
      "home_delivery",
      "consultation"
    ],
    "delivery_km": 7,
    "rating": 3.8,
    "verified": true
  },
  {
    "id": "ph18333",
    "name": "Metropolis Healthcare Vikhroli",
    "lat": 19.107021,
    "lon": 72.928646,
    "city": "Mumbai",
    "pincode": "400086",
    "area": "Vikhroli",
    "district": "Mumbai Suburban",
    "services": [
      "online_ordering",
      "consultation"
    ],
    "delivery_km": 10,
    "rating": 3.6,
    "verified": true
  },
  {
    "id": "ph61087",
    "name": "HealthFirst Vikhroli 2",
    "lat": 19.107467,
    "lon": 72.93002,
    "city": "Mumbai",
    "pincode": "400086",
    "area": "Vikhroli",
    "district": "Mumbai Suburban",
    "services": [
      "24x7",
      "home_delivery",
      "online_ordering"
    ],
    "delivery_km": 10,
    "rating": 4.1,
    "verified": true
  },
  {
    "id": "ph74721",
    "name": "HealthBuddy Vikhroli 3",
    "lat": 19.104713,
    "lon": 72.937956,
    "city": "Mumbai",
    "pincode": "400086",
    "area": "Vikhroli",
    "district": "Mumbai Suburban",
    "services": [
      "home_delivery"
    ],
    "delivery_km": 15,
    "rating": 4.7,
    "verified": true
  },
  {
    "id": "ph76608",
    "name": "Wellness Forever Ghatkopar",
    "lat": 19.077615,
    "lon": 72.914175,
    "city": "Mumbai",
    "pincode": "400089",
    "area": "Ghatkopar",
    "district": "Mumbai Suburban",
    "services": [
      "home_delivery"
    ],
    "delivery_km": 15,
    "rating": 4.1,
    "verified": true
  },
  {
    "id": "ph58590",
    "name": "PharmEasy Store Ghatkopar 2",
    "lat": 19.097055,
    "lon": 72.908199,
    "city": "Mumbai",
    "pincode": "400089",
    "area": "Ghatkopar",
    "district": "Mumbai Suburban",
    "services": [
      "online_ordering",
      "consultation"
    ],
    "delivery_km": 7,
    "rating": 4.2,
    "verified": true
  },
  {
    "id": "ph74198",
    "name": "MedPlus Ghatkopar 3",
    "lat": 19.080942,
    "lon": 72.908449,
    "city": "Mumbai",
    "pincode": "400089",
    "area": "Ghatkopar",
    "district": "Mumbai Suburban",
    "services": [
      "home_delivery",
      "online_ordering",
      "consultation"
    ],
    "delivery_km": 7,
    "rating": 3.9,
    "verified": true
  },
  {
    "id": "ph12363",
    "name": "Sun Pharma Outlet Borivali",
    "lat": 19.234151,
    "lon": 72.867169,
    "city": "Mumbai",
    "pincode": "400092",
    "area": "Borivali East",
    "district": "Mumbai Suburban",
    "services": [
      "24x7",
      "home_delivery"
    ],
    "delivery_km": 5,
    "rating": 4.2,
    "verified": false
  },
  {
    "id": "ph48699",
    "name": "Netmeds Pharmacy Borivali 2",
    "lat": 19.2495,
    "lon": 72.863992,
    "city": "Mumbai",
    "pincode": "400092",
    "area": "Borivali East",
    "district": "Mumbai Suburban",
    "services": [
      "home_delivery",
      "consultation"
    ],
    "delivery_km": 15,
    "rating": 4.6,
    "verified": true
  },
  {
    "id": "ph38986",
    "name": "Netmeds Pharmacy Borivali 3",
    "lat": 19.238041,
    "lon": 72.863252,
    "city": "Mumbai",
    "pincode": "400092",
    "area": "Borivali East",
    "district": "Mumbai Suburban",
    "services": [
      "online_ordering",
      "consultation"
    ],
    "delivery_km": 7,
    "rating": 3.9,
    "verified": true
  },
  {
    "id": "ph35652",
    "name": "HealthFirst Borivali",
    "lat": 19.227204,
    "lon": 72.846327,
    "city": "Mumbai",
    "pincode": "400093",
    "area": "Borivali West",
    "district": "Mumbai Suburban",
    "services": [
      "24x7",
      "home_delivery"
    ],
    "delivery_km": 5,
    "rating": 3.7,
    "verified": true
  },
  {
    "id": "ph49645",
    "name": "MediMax Borivali 2",
    "lat": 19.234701,
    "lon": 72.838397,
    "city": "Mumbai",
    "pincode": "400093",
    "area": "Borivali West",
    "district": "Mumbai Suburban",
    "services": [
      "home_delivery",
      "consultation"
    ],
    "delivery_km": 15,
    "rating": 4.0,
    "verified": true
  },
  {
    "id": "ph11494",
    "name": "Dr Reddys Borivali 3",
    "lat": 19.235654,
    "lon": 72.847129,
    "city": "Mumbai",
    "pincode": "400093",
    "area": "Borivali West",
    "district": "Mumbai Suburban",
    "services": [
      "24x7",
      "home_delivery",
      "online_ordering"
    ],
    "delivery_km": 5,
    "rating": 4.1,
    "verified": true
  },
  {
    "id": "ph76554",
    "name": "PharmEasy Store Kandivali",
    "lat": 19.209804,
    "lon": 72.856689,
    "city": "Mumbai",
    "pincode": "400101",
    "area": "Kandivali East",
    "district": "Mumbai Suburban",
    "services": [
      "online_ordering",
      "consultation"
    ],
    "delivery_km": 15,
    "rating": 3.5,
    "verified": true
  },
  {
    "id": "ph68059",
    "name": "LifeCare Chemist Kandivali 2",
    "lat": 19.195911,
    "lon": 72.861667,
    "city": "Mumbai",
    "pincode": "400101",
    "area": "Kandivali East",
    "district": "Mumbai Suburban",
    "services": [
      "home_delivery",
      "online_ordering",
      "consultation"
    ],
    "delivery_km": 10,
    "rating": 4.5,
    "verified": true
  },
  {
    "id": "ph86689",
    "name": "LifeCare Chemist Kandivali 3",
    "lat": 19.202447,
    "lon": 72.863819,
    "city": "Mumbai",
    "pincode": "400101",
    "area": "Kandivali East",
    "district": "Mumbai Suburban",
    "services": [
      "online_ordering",
      "consultation"
    ],
    "delivery_km": 10,
    "rating": 4.7,
    "verified": true
  },
  {
    "id": "ph77094",
    "name": "Sanjeevani Medical Malad",
    "lat": 19.184591,
    "lon": 72.836282,
    "city": "Mumbai",
    "pincode": "400103",
    "area": "Malad West",
    "district": "Mumbai Suburban",
    "services": [
      "home_delivery",
      "online_ordering",
      "consultation"
    ],
    "delivery_km": 10,
    "rating": 4.5,
    "verified": true
  },
  {
    "id": "ph87232",
    "name": "PharmEasy Store Malad 2",
    "lat": 19.189821,
    "lon": 72.846328,
    "city": "Mumbai",
    "pincode": "400103",
    "area": "Malad West",
    "district": "Mumbai Suburban",
    "services": [
      "home_delivery"
    ],
    "delivery_km": 5,
    "rating": 4.3,
    "verified": true
  },
  {
    "id": "ph54747",
    "name": "CureWell Malad 3",
    "lat": 19.188973,
    "lon": 72.835843,
    "city": "Mumbai",
    "pincode": "400103",
    "area": "Malad West",
    "district": "Mumbai Suburban",
    "services": [
      "24x7",
      "home_delivery"
    ],
    "delivery_km": 7,
    "rating": 5.0,
    "verified": true
  },
  {
    "id": "ph89144",
    "name": "1mg Store Thane",
    "lat": 19.21717,
    "lon": 72.982414,
    "city": "Thane",
    "pincode": "400601",
    "area": "Thane West",
    "district": "Thane",
    "services": [
      "online_ordering",
      "consultation"
    ],
    "delivery_km": 5,
    "rating": 4.5,
    "verified": true
  },
  {
    "id": "ph76464",
    "name": "Sun Pharma Outlet Thane 2",
    "lat": 19.211472,
    "lon": 72.978161,
    "city": "Thane",
    "pincode": "400601",
    "area": "Thane West",
    "district": "Thane",
    "services": [
      "online_ordering",
      "consultation"
    ],
    "delivery_km": 5,
    "rating": 4.8,
    "verified": false
  },
  {
    "id": "ph32019",
    "name": "1mg Store Thane 3",
    "lat": 19.224561,
    "lon": 72.976011,
    "city": "Thane",
    "pincode": "400601",
    "area": "Thane West",
    "district": "Thane",
    "services": [
      "24x7",
      "home_delivery"
    ],
    "delivery_km": 15,
    "rating": 4.7,
    "verified": true
  },
  {
    "id": "ph29296",
    "name": "Apollo Pharmacy Thane 4",
    "lat": 19.221752,
    "lon": 72.983435,
    "city": "Thane",
    "pincode": "400601",
    "area": "Thane West",
    "district": "Thane",
    "services": [
      "24x7",
      "home_delivery",
      "online_ordering"
    ],
    "delivery_km": 7,
    "rating": 4.2,
    "verified": true
  },
  {
    "id": "ph25395",
    "name": "Sun Pharma Outlet Thane 5",
    "lat": 19.221105,
    "lon": 72.980749,
    "city": "Thane",
    "pincode": "400601",
    "area": "Thane West",
    "district": "Thane",
    "services": [
      "home_delivery"
    ],
    "delivery_km": 5,
    "rating": 4.1,
    "verified": true
  },
  {
    "id": "ph34707",
    "name": "Metropolis Healthcare Naupada",
    "lat": 19.19855,
    "lon": 72.956768,
    "city": "Thane",
    "pincode": "400602",
    "area": "Naupada",
    "district": "Thane",
    "services": [
      "home_delivery"
    ],
    "delivery_km": 15,
    "rating": 4.0,
    "verified": true
  },
  {
    "id": "ph86294",
    "name": "HealthBuddy Naupada 2",
    "lat": 19.192411,
    "lon": 72.961578,
    "city": "Thane",
    "pincode": "400602",
    "area": "Naupada",
    "district": "Thane",
    "services": [
      "24x7",
      "home_delivery",
      "online_ordering"
    ],
    "delivery_km": 15,
    "rating": 4.9,
    "verified": true
  },
  {
    "id": "ph74737",
    "name": "Sanjeevani Medical Naupada 3",
    "lat": 19.196853,
    "lon": 72.973005,
    "city": "Thane",
    "pincode": "400602",
    "area": "Naupada",
    "district": "Thane",
    "services": [
      "24x7",
      "home_delivery",
      "online_ordering"
    ],
    "delivery_km": 5,
    "rating": 4.0,
    "verified": true
  },
  {
    "id": "ph29841",
    "name": "VitalRx Naupada 4",
    "lat": 19.195617,
    "lon": 72.965328,
    "city": "Thane",
    "pincode": "400602",
    "area": "Naupada",
    "district": "Thane",
    "services": [
      "home_delivery",
      "consultation"
    ],
    "delivery_km": 10,
    "rating": 4.1,
    "verified": true
  },
  {
    "id": "ph53495",
    "name": "HealthFirst Naupada 5",
    "lat": 19.195565,
    "lon": 72.964062,
    "city": "Thane",
    "pincode": "400602",
    "area": "Naupada",
    "district": "Thane",
    "services": [
      "home_delivery",
      "consultation"
    ],
    "delivery_km": 5,
    "rating": 3.8,
    "verified": false
  },
  {
    "id": "ph32333",
    "name": "Apollo Pharmacy Thane",
    "lat": 19.212556,
    "lon": 72.985392,
    "city": "Thane",
    "pincode": "400603",
    "area": "Thane East",
    "district": "Thane",
    "services": [
      "home_delivery"
    ],
    "delivery_km": 7,
    "rating": 3.7,
    "verified": true
  },
  {
    "id": "ph55769",
    "name": "1mg Store Thane 2",
    "lat": 19.210965,
    "lon": 72.981928,
    "city": "Thane",
    "pincode": "400603",
    "area": "Thane East",
    "district": "Thane",
    "services": [
      "online_ordering",
      "consultation"
    ],
    "delivery_km": 7,
    "rating": 5.0,
    "verified": true
  },
  {
    "id": "ph97102",
    "name": "Netmeds Pharmacy Thane 3",
    "lat": 19.210186,
    "lon": 72.992006,
    "city": "Thane",
    "pincode": "400603",
    "area": "Thane East",
    "district": "Thane",
    "services": [
      "home_delivery"
    ],
    "delivery_km": 5,
    "rating": 3.5,
    "verified": true
  },
  {
    "id": "ph17811",
    "name": "MediHub Thane 4",
    "lat": 19.206114,
    "lon": 72.991745,
    "city": "Thane",
    "pincode": "400603",
    "area": "Thane East",
    "district": "Thane",
    "services": [
      "online_ordering",
      "consultation"
    ],
    "delivery_km": 10,
    "rating": 4.1,
    "verified": true
  },
  {
    "id": "ph84962",
    "name": "1mg Store Thane 5",
    "lat": 19.207385,
    "lon": 72.985773,
    "city": "Thane",
    "pincode": "400603",
    "area": "Thane East",
    "district": "Thane",
    "services": [
      "home_delivery"
    ],
    "delivery_km": 15,
    "rating": 3.7,
    "verified": true
  },
  {
    "id": "ph29049",
    "name": "MediMax Vartak",
    "lat": 19.192861,
    "lon": 72.960869,
    "city": "Thane",
    "pincode": "400604",
    "area": "Vartak Nagar",
    "district": "Thane",
    "services": [
      "home_delivery",
      "online_ordering",
      "consultation"
    ],
    "delivery_km": 10,
    "rating": 4.3,
    "verified": true
  },
  {
    "id": "ph74306",
    "name": "HealthBuddy Vartak 2",
    "lat": 19.198188,
    "lon": 72.961974,
    "city": "Thane",
    "pincode": "400604",
    "area": "Vartak Nagar",
    "district": "Thane",
    "services": [
      "24x7",
      "home_delivery"
    ],
    "delivery_km": 5,
    "rating": 4.3,
    "verified": true
  },
  {
    "id": "ph18686",
    "name": "Fortis Pharmacy Vartak 3",
    "lat": 19.198652,
    "lon": 72.954079,
    "city": "Thane",
    "pincode": "400604",
    "area": "Vartak Nagar",
    "district": "Thane",
    "services": [
      "home_delivery"
    ],
    "delivery_km": 7,
    "rating": 4.2,
    "verified": false
  },
  {
    "id": "ph28877",
    "name": "MediHub Vartak 4",
    "lat": 19.199594,
    "lon": 72.953282,
    "city": "Thane",
    "pincode": "400604",
    "area": "Vartak Nagar",
    "district": "Thane",
    "services": [
      "home_delivery",
      "online_ordering",
      "consultation"
    ],
    "delivery_km": 10,
    "rating": 4.3,
    "verified": true
  },
  {
    "id": "ph14092",
    "name": "LifeCare Chemist Vartak 5",
    "lat": 19.190778,
    "lon": 72.960718,
    "city": "Thane",
    "pincode": "400604",
    "area": "Vartak Nagar",
    "district": "Thane",
    "services": [
      "online_ordering",
      "consultation"
    ],
    "delivery_km": 5,
    "rating": 3.8,
    "verified": true
  },
  {
    "id": "ph27661",
    "name": "PharmaOne Kopri",
    "lat": 19.206763,
    "lon": 72.964705,
    "city": "Thane",
    "pincode": "400605",
    "area": "Kopri",
    "district": "Thane",
    "services": [
      "home_delivery",
      "consultation"
    ],
    "delivery_km": 5,
    "rating": 4.0,
    "verified": true
  },
  {
    "id": "ph72654",
    "name": "Sanjeevani Medical Kopri 2",
    "lat": 19.209213,
    "lon": 72.968492,
    "city": "Thane",
    "pincode": "400605",
    "area": "Kopri",
    "district": "Thane",
    "services": [
      "home_delivery",
      "consultation"
    ],
    "delivery_km": 5,
    "rating": 4.4,
    "verified": true
  },
  {
    "id": "ph84140",
    "name": "Fortis Pharmacy Kopri 3",
    "lat": 19.205626,
    "lon": 72.963445,
    "city": "Thane",
    "pincode": "400605",
    "area": "Kopri",
    "district": "Thane",
    "services": [
      "24x7",
      "home_delivery"
    ],
    "delivery_km": 7,
    "rating": 3.7,
    "verified": false
  },
  {
    "id": "ph26007",
    "name": "PharmEasy Store Kopri 4",
    "lat": 19.204768,
    "lon": 72.972055,
    "city": "Thane",
    "pincode": "400605",
    "area": "Kopri",
    "district": "Thane",
    "services": [
      "online_ordering",
      "consultation"
    ],
    "delivery_km": 10,
    "rating": 4.0,
    "verified": true
  },
  {
    "id": "ph30988",
    "name": "PharmaOne Kopri 5",
    "lat": 19.202971,
    "lon": 72.971646,
    "city": "Thane",
    "pincode": "400605",
    "area": "Kopri",
    "district": "Thane",
    "services": [
      "home_delivery",
      "online_ordering",
      "consultation"
    ],
    "delivery_km": 15,
    "rating": 4.0,
    "verified": false
  },
  {
    "id": "ph71416",
    "name": "VitalRx Wagle",
    "lat": 19.21457,
    "lon": 72.956468,
    "city": "Thane",
    "pincode": "400606",
    "area": "Wagle Estate",
    "district": "Thane",
    "services": [
      "24x7",
      "home_delivery",
      "online_ordering"
    ],
    "delivery_km": 5,
    "rating": 4.6,
    "verified": true
  },
  {
    "id": "ph49575",
    "name": "Sanjeevani Medical Wagle 2",
    "lat": 19.209205,
    "lon": 72.954562,
    "city": "Thane",
    "pincode": "400606",
    "area": "Wagle Estate",
    "district": "Thane",
    "services": [
      "home_delivery",
      "consultation"
    ],
    "delivery_km": 15,
    "rating": 3.8,
    "verified": true
  },
  {
    "id": "ph15014",
    "name": "MedPlus Wagle 3",
    "lat": 19.211927,
    "lon": 72.95241,
    "city": "Thane",
    "pincode": "400606",
    "area": "Wagle Estate",
    "district": "Thane",
    "services": [
      "home_delivery"
    ],
    "delivery_km": 7,
    "rating": 3.8,
    "verified": true
  },
  {
    "id": "ph19299",
    "name": "CarePlus Pharmacy Wagle 4",
    "lat": 19.212012,
    "lon": 72.957094,
    "city": "Thane",
    "pincode": "400606",
    "area": "Wagle Estate",
    "district": "Thane",
    "services": [
      "24x7",
      "home_delivery"
    ],
    "delivery_km": 7,
    "rating": 4.9,
    "verified": false
  },
  {
    "id": "ph19137",
    "name": "MediMax Wagle 5",
    "lat": 19.207243,
    "lon": 72.950985,
    "city": "Thane",
    "pincode": "400606",
    "area": "Wagle Estate",
    "district": "Thane",
    "services": [
      "24x7",
      "home_delivery",
      "online_ordering"
    ],
    "delivery_km": 7,
    "rating": 4.3,
    "verified": true
  },
  {
    "id": "ph68702",
    "name": "LifeCare Chemist Louis",
    "lat": 19.210037,
    "lon": 72.963638,
    "city": "Thane",
    "pincode": "400607",
    "area": "Louis Wadi",
    "district": "Thane",
    "services": [
      "online_ordering",
      "consultation"
    ],
    "delivery_km": 5,
    "rating": 4.0,
    "verified": true
  },
  {
    "id": "ph93398",
    "name": "Wellness Forever Louis 2",
    "lat": 19.21002,
    "lon": 72.973105,
    "city": "Thane",
    "pincode": "400607",
    "area": "Louis Wadi",
    "district": "Thane",
    "services": [
      "home_delivery"
    ],
    "delivery_km": 7,
    "rating": 4.6,
    "verified": true
  },
  {
    "id": "ph83630",
    "name": "Sanjeevani Medical Louis 3",
    "lat": 19.21326,
    "lon": 72.96436,
    "city": "Thane",
    "pincode": "400607",
    "area": "Louis Wadi",
    "district": "Thane",
    "services": [
      "home_delivery"
    ],
    "delivery_km": 7,
    "rating": 4.0,
    "verified": true
  },
  {
    "id": "ph63514",
    "name": "PharmaOne Louis 4",
    "lat": 19.210881,
    "lon": 72.959654,
    "city": "Thane",
    "pincode": "400607",
    "area": "Louis Wadi",
    "district": "Thane",
    "services": [
      "home_delivery",
      "consultation"
    ],
    "delivery_km": 5,
    "rating": 4.2,
    "verified": true
  },
  {
    "id": "ph74253",
    "name": "LifeCare Chemist Louis 5",
    "lat": 19.212716,
    "lon": 72.965554,
    "city": "Thane",
    "pincode": "400607",
    "area": "Louis Wadi",
    "district": "Thane",
    "services": [
      "home_delivery"
    ],
    "delivery_km": 7,
    "rating": 3.6,
    "verified": false
  },
  {
    "id": "ph57758",
    "name": "VitalRx Majiwada",
    "lat": 19.226051,
    "lon": 72.97449,
    "city": "Thane",
    "pincode": "400608",
    "area": "Majiwada",
    "district": "Thane",
    "services": [
      "home_delivery",
      "online_ordering",
      "consultation"
    ],
    "delivery_km": 10,
    "rating": 3.7,
    "verified": false
  },
  {
    "id": "ph59240",
    "name": "Netmeds Pharmacy Majiwada 2",
    "lat": 19.229204,
    "lon": 72.971709,
    "city": "Thane",
    "pincode": "400608",
    "area": "Majiwada",
    "district": "Thane",
    "services": [
      "home_delivery"
    ],
    "delivery_km": 7,
    "rating": 3.8,
    "verified": true
  },
  {
    "id": "ph23470",
    "name": "PharmEasy Store Majiwada 3",
    "lat": 19.226805,
    "lon": 72.972191,
    "city": "Thane",
    "pincode": "400608",
    "area": "Majiwada",
    "district": "Thane",
    "services": [
      "home_delivery"
    ],
    "delivery_km": 10,
    "rating": 3.6,
    "verified": false
  },
  {
    "id": "ph43867",
    "name": "Sanjeevani Medical Majiwada 4",
    "lat": 19.230412,
    "lon": 72.972411,
    "city": "Thane",
    "pincode": "400608",
    "area": "Majiwada",
    "district": "Thane",
    "services": [
      "24x7",
      "home_delivery",
      "online_ordering"
    ],
    "delivery_km": 15,
    "rating": 4.8,
    "verified": true
  },
  {
    "id": "ph19533",
    "name": "Sun Pharma Outlet Majiwada 5",
    "lat": 19.22787,
    "lon": 72.979612,
    "city": "Thane",
    "pincode": "400608",
    "area": "Majiwada",
    "district": "Thane",
    "services": [
      "24x7",
      "home_delivery"
    ],
    "delivery_km": 10,
    "rating": 4.2,
    "verified": true
  },
  {
    "id": "ph46298",
    "name": "CarePlus Pharmacy Manpada",
    "lat": 19.225049,
    "lon": 72.975771,
    "city": "Thane",
    "pincode": "400609",
    "area": "Manpada",
    "district": "Thane",
    "services": [
      "24x7",
      "home_delivery",
      "online_ordering"
    ],
    "delivery_km": 10,
    "rating": 4.8,
    "verified": true
  },
  {
    "id": "ph28222",
    "name": "HealthFirst Manpada 2",
    "lat": 19.225339,
    "lon": 72.966981,
    "city": "Thane",
    "pincode": "400609",
    "area": "Manpada",
    "district": "Thane",
    "services": [
      "24x7",
      "home_delivery",
      "online_ordering"
    ],
    "delivery_km": 15,
    "rating": 4.1,
    "verified": true
  },
  {
    "id": "ph13303",
    "name": "Sun Pharma Outlet Manpada 3",
    "lat": 19.222018,
    "lon": 72.97759,
    "city": "Thane",
    "pincode": "400609",
    "area": "Manpada",
    "district": "Thane",
    "services": [
      "home_delivery"
    ],
    "delivery_km": 7,
    "rating": 4.8,
    "verified": true
  },
  {
    "id": "ph52793",
    "name": "Netmeds Pharmacy Manpada 4",
    "lat": 19.217962,
    "lon": 72.978433,
    "city": "Thane",
    "pincode": "400609",
    "area": "Manpada",
    "district": "Thane",
    "services": [
      "24x7",
      "home_delivery"
    ],
    "delivery_km": 15,
    "rating": 4.6,
    "verified": true
  },
  {
    "id": "ph75886",
    "name": "Metropolis Healthcare Manpada 5",
    "lat": 19.22233,
    "lon": 72.975674,
    "city": "Thane",
    "pincode": "400609",
    "area": "Manpada",
    "district": "Thane",
    "services": [
      "home_delivery"
    ],
    "delivery_km": 15,
    "rating": 3.6,
    "verified": true
  },
  {
    "id": "ph21834",
    "name": "PharmaOne Ghodbunder",
    "lat": 19.237509,
    "lon": 72.987668,
    "city": "Thane",
    "pincode": "400610",
    "area": "Ghodbunder Road",
    "district": "Thane",
    "services": [
      "home_delivery",
      "consultation"
    ],
    "delivery_km": 7,
    "rating": 3.7,
    "verified": true
  },
  {
    "id": "ph38101",
    "name": "MedPlus Ghodbunder 2",
    "lat": 19.240652,
    "lon": 72.985722,
    "city": "Thane",
    "pincode": "400610",
    "area": "Ghodbunder Road",
    "district": "Thane",
    "services": [
      "24x7",
      "home_delivery"
    ],
    "delivery_km": 10,
    "rating": 3.8,
    "verified": true
  },
  {
    "id": "ph13834",
    "name": "MediMax Ghodbunder 3",
    "lat": 19.242998,
    "lon": 72.980496,
    "city": "Thane",
    "pincode": "400610",
    "area": "Ghodbunder Road",
    "district": "Thane",
    "services": [
      "online_ordering",
      "consultation"
    ],
    "delivery_km": 10,
    "rating": 3.8,
    "verified": true
  },
  {
    "id": "ph86985",
    "name": "CarePlus Pharmacy Ghodbunder 4",
    "lat": 19.233938,
    "lon": 72.983874,
    "city": "Thane",
    "pincode": "400610",
    "area": "Ghodbunder Road",
    "district": "Thane",
    "services": [
      "home_delivery",
      "consultation"
    ],
    "delivery_km": 10,
    "rating": 4.4,
    "verified": false
  },
  {
    "id": "ph25563",
    "name": "CarePlus Pharmacy Ghodbunder 5",
    "lat": 19.238394,
    "lon": 72.986381,
    "city": "Thane",
    "pincode": "400610",
    "area": "Ghodbunder Road",
    "district": "Thane",
    "services": [
      "home_delivery"
    ],
    "delivery_km": 5,
    "rating": 4.1,
    "verified": true
  },
  {
    "id": "ph65818",
    "name": "MedPlus Vashi",
    "lat": 19.083084,
    "lon": 72.99738,
    "city": "Navi Mumbai",
    "pincode": "400703",
    "area": "Vashi",
    "district": "Thane",
    "services": [
      "home_delivery",
      "online_ordering",
      "consultation"
    ],
    "delivery_km": 5,
    "rating": 4.6,
    "verified": true
  },
  {
    "id": "ph63936",
    "name": "CarePlus Pharmacy Vashi 2",
    "lat": 19.082137,
    "lon": 72.999878,
    "city": "Navi Mumbai",
    "pincode": "400703",
    "area": "Vashi",
    "district": "Thane",
    "services": [
      "24x7",
      "home_delivery"
    ],
    "delivery_km": 10,
    "rating": 4.2,
    "verified": false
  },
  {
    "id": "ph67955",
    "name": "VitalRx Vashi",
    "lat": 19.066393,
    "lon": 73.0023,
    "city": "Navi Mumbai",
    "pincode": "400705",
    "area": "Vashi Sector",
    "district": "Thane",
    "services": [
      "24x7",
      "home_delivery",
      "online_ordering"
    ],
    "delivery_km": 7,
    "rating": 4.5,
    "verified": false
  },
  {
    "id": "ph45620",
    "name": "Sun Pharma Outlet Vashi 2",
    "lat": 19.073283,
    "lon": 73.003546,
    "city": "Navi Mumbai",
    "pincode": "400705",
    "area": "Vashi Sector",
    "district": "Thane",
    "services": [
      "24x7",
      "home_delivery",
      "online_ordering"
    ],
    "delivery_km": 10,
    "rating": 4.9,
    "verified": true
  },
  {
    "id": "ph56099",
    "name": "HealthFirst Nerul",
    "lat": 19.031122,
    "lon": 73.020174,
    "city": "Navi Mumbai",
    "pincode": "400706",
    "area": "Nerul",
    "district": "Thane",
    "services": [
      "online_ordering",
      "consultation"
    ],
    "delivery_km": 5,
    "rating": 3.9,
    "verified": false
  },
  {
    "id": "ph10211",
    "name": "PharmEasy Store Nerul 2",
    "lat": 19.031749,
    "lon": 73.023184,
    "city": "Navi Mumbai",
    "pincode": "400706",
    "area": "Nerul",
    "district": "Thane",
    "services": [
      "home_delivery"
    ],
    "delivery_km": 15,
    "rating": 3.6,
    "verified": true
  },
  {
    "id": "ph93791",
    "name": "CureWell Nerul",
    "lat": 19.03906,
    "lon": 73.021155,
    "city": "Navi Mumbai",
    "pincode": "400707",
    "area": "Nerul Sector",
    "district": "Thane",
    "services": [
      "online_ordering",
      "consultation"
    ],
    "delivery_km": 7,
    "rating": 4.4,
    "verified": false
  },
  {
    "id": "ph94985",
    "name": "PharmaOne Nerul 2",
    "lat": 19.035858,
    "lon": 73.021838,
    "city": "Navi Mumbai",
    "pincode": "400707",
    "area": "Nerul Sector",
    "district": "Thane",
    "services": [
      "home_delivery",
      "online_ordering",
      "consultation"
    ],
    "delivery_km": 10,
    "rating": 3.8,
    "verified": true
  },
  {
    "id": "ph86044",
    "name": "Metropolis Healthcare CBD",
    "lat": 19.008523,
    "lon": 73.02792,
    "city": "Navi Mumbai",
    "pincode": "400708",
    "area": "CBD Belapur",
    "district": "Thane",
    "services": [
      "home_delivery",
      "online_ordering",
      "consultation"
    ],
    "delivery_km": 5,
    "rating": 4.0,
    "verified": true
  },
  {
    "id": "ph70670",
    "name": "PharmaOne CBD 2",
    "lat": 19.011947,
    "lon": 73.022305,
    "city": "Navi Mumbai",
    "pincode": "400708",
    "area": "CBD Belapur",
    "district": "Thane",
    "services": [
      "home_delivery"
    ],
    "delivery_km": 5,
    "rating": 3.6,
    "verified": true
  },
  {
    "id": "ph77658",
    "name": "Fortis Pharmacy Kharghar",
    "lat": 19.046601,
    "lon": 73.062502,
    "city": "Navi Mumbai",
    "pincode": "400709",
    "area": "Kharghar",
    "district": "Raigad",
    "services": [
      "home_delivery"
    ],
    "delivery_km": 7,
    "rating": 4.7,
    "verified": false
  },
  {
    "id": "ph11542",
    "name": "Sun Pharma Outlet Kharghar 2",
    "lat": 19.042837,
    "lon": 73.072515,
    "city": "Navi Mumbai",
    "pincode": "400709",
    "area": "Kharghar",
    "district": "Raigad",
    "services": [
      "24x7",
      "home_delivery",
      "online_ordering"
    ],
    "delivery_km": 15,
    "rating": 4.4,
    "verified": true
  },
  {
    "id": "ph61016",
    "name": "VitalRx Kharghar",
    "lat": 19.050903,
    "lon": 73.068151,
    "city": "Navi Mumbai",
    "pincode": "400710",
    "area": "Kharghar Sector",
    "district": "Raigad",
    "services": [
      "24x7",
      "home_delivery",
      "online_ordering"
    ],
    "delivery_km": 15,
    "rating": 4.9,
    "verified": false
  },
  {
    "id": "ph39668",
    "name": "PharmEasy Store Kharghar 2",
    "lat": 19.043511,
    "lon": 73.064247,
    "city": "Navi Mumbai",
    "pincode": "400710",
    "area": "Kharghar Sector",
    "district": "Raigad",
    "services": [
      "online_ordering",
      "consultation"
    ],
    "delivery_km": 5,
    "rating": 4.6,
    "verified": true
  },
  {
    "id": "ph95230",
    "name": "Metropolis Healthcare Ghansoli",
    "lat": 19.122951,
    "lon": 72.996992,
    "city": "Navi Mumbai",
    "pincode": "400614",
    "area": "Ghansoli",
    "district": "Thane",
    "services": [
      "24x7",
      "home_delivery",
      "online_ordering"
    ],
    "delivery_km": 7,
    "rating": 4.3,
    "verified": true
  },
  {
    "id": "ph42395",
    "name": "HealthFirst Ghansoli 2",
    "lat": 19.126706,
    "lon": 73.001178,
    "city": "Navi Mumbai",
    "pincode": "400614",
    "area": "Ghansoli",
    "district": "Thane",
    "services": [
      "online_ordering",
      "consultation"
    ],
    "delivery_km": 15,
    "rating": 3.9,
    "verified": true
  },
  {
    "id": "ph21374",
    "name": "CureWell Airoli",
    "lat": 19.16265,
    "lon": 72.987771,
    "city": "Navi Mumbai",
    "pincode": "400615",
    "area": "Airoli",
    "district": "Thane",
    "services": [
      "home_delivery",
      "online_ordering",
      "consultation"
    ],
    "delivery_km": 7,
    "rating": 4.1,
    "verified": false
  },
  {
    "id": "ph91925",
    "name": "MedPlus Airoli 2",
    "lat": 19.159756,
    "lon": 72.996478,
    "city": "Navi Mumbai",
    "pincode": "400615",
    "area": "Airoli",
    "district": "Thane",
    "services": [
      "online_ordering",
      "consultation"
    ],
    "delivery_km": 10,
    "rating": 4.5,
    "verified": true
  },
  {
    "id": "ph83970",
    "name": "PharmaOne Sanpada",
    "lat": 19.070017,
    "lon": 73.0038,
    "city": "Navi Mumbai",
    "pincode": "400701",
    "area": "Sanpada",
    "district": "Thane",
    "services": [
      "home_delivery"
    ],
    "delivery_km": 7,
    "rating": 4.0,
    "verified": false
  },
  {
    "id": "ph88657",
    "name": "Fortis Pharmacy Sanpada 2",
    "lat": 19.079739,
    "lon": 73.013139,
    "city": "Navi Mumbai",
    "pincode": "400701",
    "area": "Sanpada",
    "district": "Thane",
    "services": [
      "home_delivery",
      "consultation"
    ],
    "delivery_km": 5,
    "rating": 3.8,
    "verified": true
  },
  {
    "id": "ph96292",
    "name": "PharmEasy Store Turbhe",
    "lat": 19.070443,
    "lon": 73.013284,
    "city": "Navi Mumbai",
    "pincode": "400702",
    "area": "Turbhe",
    "district": "Thane",
    "services": [
      "home_delivery",
      "online_ordering",
      "consultation"
    ],
    "delivery_km": 5,
    "rating": 4.9,
    "verified": false
  },
  {
    "id": "ph97485",
    "name": "Wellness Forever Turbhe 2",
    "lat": 19.063708,
    "lon": 73.008858,
    "city": "Navi Mumbai",
    "pincode": "400702",
    "area": "Turbhe",
    "district": "Thane",
    "services": [
      "home_delivery"
    ],
    "delivery_km": 10,
    "rating": 4.3,
    "verified": true
  },
  {
    "id": "ph80114",
    "name": "CureWell Kopar",
    "lat": 19.100016,
    "lon": 73.011545,
    "city": "Navi Mumbai",
    "pincode": "400704",
    "area": "Kopar Khairane",
    "district": "Thane",
    "services": [
      "home_delivery",
      "consultation"
    ],
    "delivery_km": 5,
    "rating": 4.2,
    "verified": true
  },
  {
    "id": "ph75556",
    "name": "Dr Reddys Kopar 2",
    "lat": 19.101955,
    "lon": 73.015506,
    "city": "Navi Mumbai",
    "pincode": "400704",
    "area": "Kopar Khairane",
    "district": "Thane",
    "services": [
      "home_delivery",
      "online_ordering",
      "consultation"
    ],
    "delivery_km": 15,
    "rating": 4.7,
    "verified": true
  },
  {
    "id": "ph83952",
    "name": "Metropolis Healthcare Panvel",
    "lat": 18.993296,
    "lon": 73.120441,
    "city": "Navi Mumbai",
    "pincode": "410210",
    "area": "Panvel",
    "district": "Raigad",
    "services": [
      "online_ordering",
      "consultation"
    ],
    "delivery_km": 10,
    "rating": 4.3,
    "verified": true
  },
  {
    "id": "ph58559",
    "name": "Metropolis Healthcare Panvel 2",
    "lat": 18.989159,
    "lon": 73.122754,
    "city": "Navi Mumbai",
    "pincode": "410210",
    "area": "Panvel",
    "district": "Raigad",
    "services": [
      "home_delivery"
    ],
    "delivery_km": 15,
    "rating": 4.5,
    "verified": true
  },
  {
    "id": "ph69543",
    "name": "Sun Pharma Outlet Kamothe",
    "lat": 19.015094,
    "lon": 73.094772,
    "city": "Navi Mumbai",
    "pincode": "410206",
    "area": "Kamothe",
    "district": "Raigad",
    "services": [
      "home_delivery"
    ],
    "delivery_km": 7,
    "rating": 4.3,
    "verified": false
  },
  {
    "id": "ph56643",
    "name": "PharmEasy Store Kamothe 2",
    "lat": 19.021523,
    "lon": 73.097482,
    "city": "Navi Mumbai",
    "pincode": "410206",
    "area": "Kamothe",
    "district": "Raigad",
    "services": [
      "home_delivery",
      "consultation"
    ],
    "delivery_km": 10,
    "rating": 3.7,
    "verified": true
  },
  {
    "id": "ph63895",
    "name": "PharmEasy Store Kalyan",
    "lat": 19.236709,
    "lon": 73.133979,
    "city": "Kalyan",
    "pincode": "421301",
    "area": "Kalyan West",
    "district": "Thane",
    "services": [
      "24x7",
      "home_delivery"
    ],
    "delivery_km": 15,
    "rating": 4.9,
    "verified": true
  },
  {
    "id": "ph20829",
    "name": "Metropolis Healthcare Kalyan 2",
    "lat": 19.233826,
    "lon": 73.135977,
    "city": "Kalyan",
    "pincode": "421301",
    "area": "Kalyan West",
    "district": "Thane",
    "services": [
      "home_delivery",
      "consultation"
    ],
    "delivery_km": 15,
    "rating": 3.8,
    "verified": true
  },
  {
    "id": "ph98889",
    "name": "HealthBuddy Kalyan 3",
    "lat": 19.238768,
    "lon": 73.134107,
    "city": "Kalyan",
    "pincode": "421301",
    "area": "Kalyan West",
    "district": "Thane",
    "services": [
      "24x7",
      "home_delivery",
      "online_ordering"
    ],
    "delivery_km": 10,
    "rating": 4.0,
    "verified": true
  },
  {
    "id": "ph99870",
    "name": "VitalRx Kalyan",
    "lat": 19.242768,
    "lon": 73.156816,
    "city": "Kalyan",
    "pincode": "421302",
    "area": "Kalyan East",
    "district": "Thane",
    "services": [
      "home_delivery"
    ],
    "delivery_km": 10,
    "rating": 3.5,
    "verified": true
  },
  {
    "id": "ph31329",
    "name": "MediMax Kalyan 2",
    "lat": 19.239925,
    "lon": 73.157853,
    "city": "Kalyan",
    "pincode": "421302",
    "area": "Kalyan East",
    "district": "Thane",
    "services": [
      "online_ordering",
      "consultation"
    ],
    "delivery_km": 5,
    "rating": 5.0,
    "verified": true
  },
  {
    "id": "ph68843",
    "name": "Fortis Pharmacy Kalyan 3",
    "lat": 19.237924,
    "lon": 73.154592,
    "city": "Kalyan",
    "pincode": "421302",
    "area": "Kalyan East",
    "district": "Thane",
    "services": [
      "online_ordering",
      "consultation"
    ],
    "delivery_km": 7,
    "rating": 3.7,
    "verified": true
  },
  {
    "id": "ph22084",
    "name": "Metropolis Healthcare Shahad",
    "lat": 19.216639,
    "lon": 73.130107,
    "city": "Kalyan",
    "pincode": "421303",
    "area": "Shahad",
    "district": "Thane",
    "services": [
      "24x7",
      "home_delivery"
    ],
    "delivery_km": 10,
    "rating": 4.0,
    "verified": true
  },
  {
    "id": "ph78380",
    "name": "Sun Pharma Outlet Shahad 2",
    "lat": 19.213909,
    "lon": 73.131259,
    "city": "Kalyan",
    "pincode": "421303",
    "area": "Shahad",
    "district": "Thane",
    "services": [
      "24x7",
      "home_delivery"
    ],
    "delivery_km": 5,
    "rating": 4.7,
    "verified": true
  },
  {
    "id": "ph81404",
    "name": "Sun Pharma Outlet Shahad 3",
    "lat": 19.218554,
    "lon": 73.13525,
    "city": "Kalyan",
    "pincode": "421303",
    "area": "Shahad",
    "district": "Thane",
    "services": [
      "home_delivery"
    ],
    "delivery_km": 7,
    "rating": 4.8,
    "verified": true
  },
  {
    "id": "ph18189",
    "name": "1mg Store Dombivli",
    "lat": 19.219607,
    "lon": 73.081124,
    "city": "Kalyan",
    "pincode": "421304",
    "area": "Dombivli East",
    "district": "Thane",
    "services": [
      "24x7",
      "home_delivery"
    ],
    "delivery_km": 5,
    "rating": 4.7,
    "verified": true
  },
  {
    "id": "ph17700",
    "name": "Wellness Forever Dombivli 2",
    "lat": 19.215555,
    "lon": 73.086677,
    "city": "Kalyan",
    "pincode": "421304",
    "area": "Dombivli East",
    "district": "Thane",
    "services": [
      "home_delivery",
      "consultation"
    ],
    "delivery_km": 5,
    "rating": 4.1,
    "verified": true
  },
  {
    "id": "ph98432",
    "name": "Sanjeevani Medical Dombivli 3",
    "lat": 19.217965,
    "lon": 73.08882,
    "city": "Kalyan",
    "pincode": "421304",
    "area": "Dombivli East",
    "district": "Thane",
    "services": [
      "home_delivery"
    ],
    "delivery_km": 15,
    "rating": 4.4,
    "verified": true
  },
  {
    "id": "ph34735",
    "name": "Fortis Pharmacy Dombivli",
    "lat": 19.22719,
    "lon": 73.082904,
    "city": "Kalyan",
    "pincode": "421201",
    "area": "Dombivli West",
    "district": "Thane",
    "services": [
      "24x7",
      "home_delivery",
      "online_ordering"
    ],
    "delivery_km": 5,
    "rating": 5.0,
    "verified": true
  },
  {
    "id": "ph58419",
    "name": "Sun Pharma Outlet Dombivli 2",
    "lat": 19.227249,
    "lon": 73.089464,
    "city": "Kalyan",
    "pincode": "421201",
    "area": "Dombivli West",
    "district": "Thane",
    "services": [
      "home_delivery",
      "online_ordering",
      "consultation"
    ],
    "delivery_km": 10,
    "rating": 4.3,
    "verified": false
  },
  {
    "id": "ph56626",
    "name": "HealthFirst Dombivli 3",
    "lat": 19.224142,
    "lon": 73.08688,
    "city": "Kalyan",
    "pincode": "421201",
    "area": "Dombivli West",
    "district": "Thane",
    "services": [
      "online_ordering",
      "consultation"
    ],
    "delivery_km": 10,
    "rating": 4.1,
    "verified": true
  },
  {
    "id": "ph79420",
    "name": "Metropolis Healthcare Dombivli",
    "lat": 19.224047,
    "lon": 73.089912,
    "city": "Kalyan",
    "pincode": "421203",
    "area": "Dombivli",
    "district": "Thane",
    "services": [
      "24x7",
      "home_delivery",
      "online_ordering"
    ],
    "delivery_km": 15,
    "rating": 3.8,
    "verified": false
  },
  {
    "id": "ph22641",
    "name": "Apollo Pharmacy Dombivli 2",
    "lat": 19.230285,
    "lon": 73.08887,
    "city": "Kalyan",
    "pincode": "421203",
    "area": "Dombivli",
    "district": "Thane",
    "services": [
      "home_delivery",
      "consultation"
    ],
    "delivery_km": 15,
    "rating": 4.0,
    "verified": true
  },
  {
    "id": "ph23657",
    "name": "Metropolis Healthcare Dombivli 3",
    "lat": 19.226971,
    "lon": 73.096248,
    "city": "Kalyan",
    "pincode": "421203",
    "area": "Dombivli",
    "district": "Thane",
    "services": [
      "24x7",
      "home_delivery",
      "online_ordering"
    ],
    "delivery_km": 10,
    "rating": 4.9,
    "verified": true
  },
  {
    "id": "ph80718",
    "name": "HealthFirst Bhiwandi",
    "lat": 19.298549,
    "lon": 73.065465,
    "city": "Bhiwandi",
    "pincode": "421302",
    "area": "Bhiwandi City",
    "district": "Thane",
    "services": [
      "24x7",
      "home_delivery"
    ],
    "delivery_km": 15,
    "rating": 4.5,
    "verified": true
  },
  {
    "id": "ph89119",
    "name": "HealthBuddy Bhiwandi 2",
    "lat": 19.294693,
    "lon": 73.068667,
    "city": "Bhiwandi",
    "pincode": "421302",
    "area": "Bhiwandi City",
    "district": "Thane",
    "services": [
      "online_ordering",
      "consultation"
    ],
    "delivery_km": 10,
    "rating": 3.7,
    "verified": false
  },
  {
    "id": "ph87876",
    "name": "Apollo Pharmacy Bhiwandi 3",
    "lat": 19.298011,
    "lon": 73.070021,
    "city": "Bhiwandi",
    "pincode": "421302",
    "area": "Bhiwandi City",
    "district": "Thane",
    "services": [
      "home_delivery",
      "online_ordering",
      "consultation"
    ],
    "delivery_km": 10,
    "rating": 3.8,
    "verified": true
  },
  {
    "id": "ph92931",
    "name": "Sun Pharma Outlet Bhiwandi",
    "lat": 19.29357,
    "lon": 73.08318,
    "city": "Bhiwandi",
    "pincode": "421305",
    "area": "Bhiwandi MIDC",
    "district": "Thane",
    "services": [
      "home_delivery",
      "online_ordering",
      "consultation"
    ],
    "delivery_km": 10,
    "rating": 4.3,
    "verified": true
  },
  {
    "id": "ph67844",
    "name": "VitalRx Bhiwandi 2",
    "lat": 19.306597,
    "lon": 73.078274,
    "city": "Bhiwandi",
    "pincode": "421305",
    "area": "Bhiwandi MIDC",
    "district": "Thane",
    "services": [
      "24x7",
      "home_delivery"
    ],
    "delivery_km": 10,
    "rating": 4.9,
    "verified": true
  },
  {
    "id": "ph49267",
    "name": "Dr Reddys Bhiwandi 3",
    "lat": 19.300216,
    "lon": 73.075551,
    "city": "Bhiwandi",
    "pincode": "421305",
    "area": "Bhiwandi MIDC",
    "district": "Thane",
    "services": [
      "24x7",
      "home_delivery",
      "online_ordering"
    ],
    "delivery_km": 15,
    "rating": 4.9,
    "verified": true
  },
  {
    "id": "ph31581",
    "name": "PharmaOne Anjur",
    "lat": 19.325043,
    "lon": 73.054992,
    "city": "Bhiwandi",
    "pincode": "421308",
    "area": "Anjur Phata",
    "district": "Thane",
    "services": [
      "home_delivery",
      "consultation"
    ],
    "delivery_km": 7,
    "rating": 4.5,
    "verified": false
  },
  {
    "id": "ph35394",
    "name": "MediHub Anjur 2",
    "lat": 19.321731,
    "lon": 73.050696,
    "city": "Bhiwandi",
    "pincode": "421308",
    "area": "Anjur Phata",
    "district": "Thane",
    "services": [
      "24x7",
      "home_delivery"
    ],
    "delivery_km": 7,
    "rating": 4.1,
    "verified": false
  },
  {
    "id": "ph83635",
    "name": "Sun Pharma Outlet Anjur 3",
    "lat": 19.314697,
    "lon": 73.052497,
    "city": "Bhiwandi",
    "pincode": "421308",
    "area": "Anjur Phata",
    "district": "Thane",
    "services": [
      "online_ordering",
      "consultation"
    ],
    "delivery_km": 5,
    "rating": 4.3,
    "verified": true
  },
  {
    "id": "ph36679",
    "name": "MedPlus New",
    "lat": 19.030008,
    "lon": 73.096323,
    "city": "Panvel",
    "pincode": "410206",
    "area": "New Panvel",
    "district": "Raigad",
    "services": [
      "home_delivery",
      "consultation"
    ],
    "delivery_km": 15,
    "rating": 4.0,
    "verified": true
  },
  {
    "id": "ph74097",
    "name": "PharmaOne New 2",
    "lat": 19.036491,
    "lon": 73.096949,
    "city": "Panvel",
    "pincode": "410206",
    "area": "New Panvel",
    "district": "Raigad",
    "services": [
      "home_delivery"
    ],
    "delivery_km": 7,
    "rating": 3.8,
    "verified": false
  },
  {
    "id": "ph11080",
    "name": "LifeCare Chemist Panvel",
    "lat": 18.992155,
    "lon": 73.114083,
    "city": "Panvel",
    "pincode": "410221",
    "area": "Panvel City",
    "district": "Raigad",
    "services": [
      "online_ordering",
      "consultation"
    ],
    "delivery_km": 7,
    "rating": 4.0,
    "verified": true
  },
  {
    "id": "ph98770",
    "name": "Netmeds Pharmacy Panvel 2",
    "lat": 18.99061,
    "lon": 73.114766,
    "city": "Panvel",
    "pincode": "410221",
    "area": "Panvel City",
    "district": "Raigad",
    "services": [
      "home_delivery",
      "consultation"
    ],
    "delivery_km": 5,
    "rating": 4.3,
    "verified": false
  },
  {
    "id": "ph30462",
    "name": "MediMax Pune",
    "lat": 18.525081,
    "lon": 73.861312,
    "city": "Pune",
    "pincode": "411001",
    "area": "Pune Cantonment",
    "district": "Pune",
    "services": [
      "home_delivery"
    ],
    "delivery_km": 15,
    "rating": 4.7,
    "verified": true
  },
  {
    "id": "ph98405",
    "name": "MediMax Pune 2",
    "lat": 18.520714,
    "lon": 73.853062,
    "city": "Pune",
    "pincode": "411001",
    "area": "Pune Cantonment",
    "district": "Pune",
    "services": [
      "home_delivery",
      "online_ordering",
      "consultation"
    ],
    "delivery_km": 7,
    "rating": 4.0,
    "verified": true
  },
  {
    "id": "ph83565",
    "name": "Sanjeevani Medical Pune 3",
    "lat": 18.526366,
    "lon": 73.855016,
    "city": "Pune",
    "pincode": "411001",
    "area": "Pune Cantonment",
    "district": "Pune",
    "services": [
      "24x7",
      "home_delivery",
      "online_ordering"
    ],
    "delivery_km": 10,
    "rating": 4.3,
    "verified": true
  },
  {
    "id": "ph14961",
    "name": "1mg Store Pune 4",
    "lat": 18.519313,
    "lon": 73.844192,
    "city": "Pune",
    "pincode": "411001",
    "area": "Pune Cantonment",
    "district": "Pune",
    "services": [
      "home_delivery",
      "consultation"
    ],
    "delivery_km": 7,
    "rating": 4.0,
    "verified": true
  },
  {
    "id": "ph52706",
    "name": "VitalRx Shivajinagar",
    "lat": 18.51929,
    "lon": 73.855472,
    "city": "Pune",
    "pincode": "411002",
    "area": "Shivajinagar",
    "district": "Pune",
    "services": [
      "home_delivery",
      "consultation"
    ],
    "delivery_km": 15,
    "rating": 4.3,
    "verified": true
  },
  {
    "id": "ph90122",
    "name": "Apollo Pharmacy Shivajinagar 2",
    "lat": 18.53173,
    "lon": 73.849577,
    "city": "Pune",
    "pincode": "411002",
    "area": "Shivajinagar",
    "district": "Pune",
    "services": [
      "online_ordering",
      "consultation"
    ],
    "delivery_km": 7,
    "rating": 3.9,
    "verified": true
  },
  {
    "id": "ph52629",
    "name": "CarePlus Pharmacy Shivajinagar 3",
    "lat": 18.535839,
    "lon": 73.853546,
    "city": "Pune",
    "pincode": "411002",
    "area": "Shivajinagar",
    "district": "Pune",
    "services": [
      "24x7",
      "home_delivery",
      "online_ordering"
    ],
    "delivery_km": 10,
    "rating": 4.6,
    "verified": true
  },
  {
    "id": "ph91974",
    "name": "CureWell Shivajinagar 4",
    "lat": 18.526453,
    "lon": 73.837399,
    "city": "Pune",
    "pincode": "411002",
    "area": "Shivajinagar",
    "district": "Pune",
    "services": [
      "24x7",
      "home_delivery",
      "online_ordering"
    ],
    "delivery_km": 15,
    "rating": 4.3,
    "verified": false
  },
  {
    "id": "ph21240",
    "name": "Sun Pharma Outlet Camp",
    "lat": 18.515695,
    "lon": 73.8889,
    "city": "Pune",
    "pincode": "411003",
    "area": "Camp",
    "district": "Pune",
    "services": [
      "home_delivery",
      "consultation"
    ],
    "delivery_km": 7,
    "rating": 4.9,
    "verified": false
  },
  {
    "id": "ph32256",
    "name": "Metropolis Healthcare Camp 2",
    "lat": 18.510773,
    "lon": 73.869105,
    "city": "Pune",
    "pincode": "411003",
    "area": "Camp",
    "district": "Pune",
    "services": [
      "24x7",
      "home_delivery",
      "online_ordering"
    ],
    "delivery_km": 5,
    "rating": 4.4,
    "verified": true
  },
  {
    "id": "ph46514",
    "name": "HealthFirst Camp 3",
    "lat": 18.511898,
    "lon": 73.883028,
    "city": "Pune",
    "pincode": "411003",
    "area": "Camp",
    "district": "Pune",
    "services": [
      "home_delivery",
      "online_ordering",
      "consultation"
    ],
    "delivery_km": 7,
    "rating": 4.5,
    "verified": true
  },
  {
    "id": "ph68510",
    "name": "Apollo Pharmacy Camp 4",
    "lat": 18.502802,
    "lon": 73.88034,
    "city": "Pune",
    "pincode": "411003",
    "area": "Camp",
    "district": "Pune",
    "services": [
      "24x7",
      "home_delivery",
      "online_ordering"
    ],
    "delivery_km": 7,
    "rating": 4.0,
    "verified": true
  },
  {
    "id": "ph59166",
    "name": "Wellness Forever Pune",
    "lat": 18.528858,
    "lon": 73.845209,
    "city": "Pune",
    "pincode": "411004",
    "area": "Pune City",
    "district": "Pune",
    "services": [
      "home_delivery"
    ],
    "delivery_km": 7,
    "rating": 3.9,
    "verified": true
  },
  {
    "id": "ph69048",
    "name": "VitalRx Pune 2",
    "lat": 18.509181,
    "lon": 73.861808,
    "city": "Pune",
    "pincode": "411004",
    "area": "Pune City",
    "district": "Pune",
    "services": [
      "24x7",
      "home_delivery",
      "online_ordering"
    ],
    "delivery_km": 7,
    "rating": 3.7,
    "verified": true
  },
  {
    "id": "ph17247",
    "name": "1mg Store Pune 3",
    "lat": 18.51946,
    "lon": 73.853847,
    "city": "Pune",
    "pincode": "411004",
    "area": "Pune City",
    "district": "Pune",
    "services": [
      "home_delivery",
      "online_ordering",
      "consultation"
    ],
    "delivery_km": 15,
    "rating": 4.6,
    "verified": false
  },
  {
    "id": "ph58896",
    "name": "Dr Reddys Pune 4",
    "lat": 18.529033,
    "lon": 73.855765,
    "city": "Pune",
    "pincode": "411004",
    "area": "Pune City",
    "district": "Pune",
    "services": [
      "home_delivery",
      "consultation"
    ],
    "delivery_km": 7,
    "rating": 4.9,
    "verified": true
  },
  {
    "id": "ph28951",
    "name": "CarePlus Pharmacy Ghorpadi",
    "lat": 18.539738,
    "lon": 73.906322,
    "city": "Pune",
    "pincode": "411005",
    "area": "Ghorpadi",
    "district": "Pune",
    "services": [
      "home_delivery",
      "consultation"
    ],
    "delivery_km": 7,
    "rating": 4.9,
    "verified": true
  },
  {
    "id": "ph79609",
    "name": "Sun Pharma Outlet Ghorpadi 2",
    "lat": 18.535277,
    "lon": 73.899376,
    "city": "Pune",
    "pincode": "411005",
    "area": "Ghorpadi",
    "district": "Pune",
    "services": [
      "24x7",
      "home_delivery"
    ],
    "delivery_km": 7,
    "rating": 3.8,
    "verified": false
  },
  {
    "id": "ph76431",
    "name": "MedPlus Ghorpadi 3",
    "lat": 18.531302,
    "lon": 73.893705,
    "city": "Pune",
    "pincode": "411005",
    "area": "Ghorpadi",
    "district": "Pune",
    "services": [
      "home_delivery",
      "online_ordering",
      "consultation"
    ],
    "delivery_km": 10,
    "rating": 3.9,
    "verified": false
  },
  {
    "id": "ph40608",
    "name": "Netmeds Pharmacy Ghorpadi 4",
    "lat": 18.522321,
    "lon": 73.900803,
    "city": "Pune",
    "pincode": "411005",
    "area": "Ghorpadi",
    "district": "Pune",
    "services": [
      "24x7",
      "home_delivery",
      "online_ordering"
    ],
    "delivery_km": 7,
    "rating": 4.9,
    "verified": true
  },
  {
    "id": "ph51523",
    "name": "CureWell Budhwar",
    "lat": 18.519647,
    "lon": 73.862927,
    "city": "Pune",
    "pincode": "411006",
    "area": "Budhwar Peth",
    "district": "Pune",
    "services": [
      "24x7",
      "home_delivery",
      "online_ordering"
    ],
    "delivery_km": 10,
    "rating": 4.0,
    "verified": true
  },
  {
    "id": "ph35517",
    "name": "MediHub Budhwar 2",
    "lat": 18.517421,
    "lon": 73.856414,
    "city": "Pune",
    "pincode": "411006",
    "area": "Budhwar Peth",
    "district": "Pune",
    "services": [
      "online_ordering",
      "consultation"
    ],
    "delivery_km": 10,
    "rating": 5.0,
    "verified": true
  },
  {
    "id": "ph47765",
    "name": "VitalRx Budhwar 3",
    "lat": 18.514394,
    "lon": 73.845895,
    "city": "Pune",
    "pincode": "411006",
    "area": "Budhwar Peth",
    "district": "Pune",
    "services": [
      "home_delivery",
      "online_ordering",
      "consultation"
    ],
    "delivery_km": 5,
    "rating": 4.4,
    "verified": false
  },
  {
    "id": "ph62233",
    "name": "PharmEasy Store Budhwar 4",
    "lat": 18.508595,
    "lon": 73.865132,
    "city": "Pune",
    "pincode": "411006",
    "area": "Budhwar Peth",
    "district": "Pune",
    "services": [
      "24x7",
      "home_delivery"
    ],
    "delivery_km": 10,
    "rating": 4.6,
    "verified": true
  },
  {
    "id": "ph35989",
    "name": "1mg Store Parvati",
    "lat": 18.493384,
    "lon": 73.86506,
    "city": "Pune",
    "pincode": "411007",
    "area": "Parvati",
    "district": "Pune",
    "services": [
      "home_delivery",
      "online_ordering",
      "consultation"
    ],
    "delivery_km": 5,
    "rating": 4.9,
    "verified": false
  },
  {
    "id": "ph93296",
    "name": "1mg Store Parvati 2",
    "lat": 18.495544,
    "lon": 73.861128,
    "city": "Pune",
    "pincode": "411007",
    "area": "Parvati",
    "district": "Pune",
    "services": [
      "online_ordering",
      "consultation"
    ],
    "delivery_km": 15,
    "rating": 4.8,
    "verified": true
  },
  {
    "id": "ph77778",
    "name": "Fortis Pharmacy Parvati 3",
    "lat": 18.488241,
    "lon": 73.869696,
    "city": "Pune",
    "pincode": "411007",
    "area": "Parvati",
    "district": "Pune",
    "services": [
      "24x7",
      "home_delivery"
    ],
    "delivery_km": 10,
    "rating": 3.7,
    "verified": true
  },
  {
    "id": "ph22820",
    "name": "Wellness Forever Parvati 4",
    "lat": 18.49031,
    "lon": 73.855528,
    "city": "Pune",
    "pincode": "411007",
    "area": "Parvati",
    "district": "Pune",
    "services": [
      "home_delivery",
      "online_ordering",
      "consultation"
    ],
    "delivery_km": 7,
    "rating": 4.1,
    "verified": false
  },
  {
    "id": "ph80999",
    "name": "Wellness Forever Shivaji",
    "lat": 18.536272,
    "lon": 73.848485,
    "city": "Pune",
    "pincode": "411008",
    "area": "Shivaji Nagar",
    "district": "Pune",
    "services": [
      "online_ordering",
      "consultation"
    ],
    "delivery_km": 5,
    "rating": 4.1,
    "verified": true
  },
  {
    "id": "ph33428",
    "name": "Fortis Pharmacy Shivaji 2",
    "lat": 18.534755,
    "lon": 73.8511,
    "city": "Pune",
    "pincode": "411008",
    "area": "Shivaji Nagar",
    "district": "Pune",
    "services": [
      "home_delivery"
    ],
    "delivery_km": 10,
    "rating": 4.2,
    "verified": true
  },
  {
    "id": "ph60312",
    "name": "CarePlus Pharmacy Shivaji 3",
    "lat": 18.535474,
    "lon": 73.835993,
    "city": "Pune",
    "pincode": "411008",
    "area": "Shivaji Nagar",
    "district": "Pune",
    "services": [
      "home_delivery",
      "online_ordering",
      "consultation"
    ],
    "delivery_km": 15,
    "rating": 4.0,
    "verified": true
  },
  {
    "id": "ph60569",
    "name": "LifeCare Chemist Shivaji 4",
    "lat": 18.525282,
    "lon": 73.840662,
    "city": "Pune",
    "pincode": "411008",
    "area": "Shivaji Nagar",
    "district": "Pune",
    "services": [
      "online_ordering",
      "consultation"
    ],
    "delivery_km": 5,
    "rating": 3.6,
    "verified": true
  },
  {
    "id": "ph14530",
    "name": "Netmeds Pharmacy Deccan",
    "lat": 18.518838,
    "lon": 73.828774,
    "city": "Pune",
    "pincode": "411009",
    "area": "Deccan Gymkhana",
    "district": "Pune",
    "services": [
      "24x7",
      "home_delivery"
    ],
    "delivery_km": 7,
    "rating": 4.0,
    "verified": false
  },
  {
    "id": "ph72376",
    "name": "Metropolis Healthcare Deccan 2",
    "lat": 18.509557,
    "lon": 73.849303,
    "city": "Pune",
    "pincode": "411009",
    "area": "Deccan Gymkhana",
    "district": "Pune",
    "services": [
      "24x7",
      "home_delivery"
    ],
    "delivery_km": 5,
    "rating": 3.8,
    "verified": true
  },
  {
    "id": "ph66789",
    "name": "Sun Pharma Outlet Deccan 3",
    "lat": 18.505636,
    "lon": 73.847518,
    "city": "Pune",
    "pincode": "411009",
    "area": "Deccan Gymkhana",
    "district": "Pune",
    "services": [
      "home_delivery"
    ],
    "delivery_km": 15,
    "rating": 3.7,
    "verified": true
  },
  {
    "id": "ph97441",
    "name": "1mg Store Deccan 4",
    "lat": 18.510003,
    "lon": 73.832554,
    "city": "Pune",
    "pincode": "411009",
    "area": "Deccan Gymkhana",
    "district": "Pune",
    "services": [
      "24x7",
      "home_delivery",
      "online_ordering"
    ],
    "delivery_km": 7,
    "rating": 3.9,
    "verified": true
  },
  {
    "id": "ph80845",
    "name": "CureWell Pune",
    "lat": 18.53526,
    "lon": 73.830684,
    "city": "Pune",
    "pincode": "411011",
    "area": "Pune University",
    "district": "Pune",
    "services": [
      "online_ordering",
      "consultation"
    ],
    "delivery_km": 15,
    "rating": 3.8,
    "verified": true
  },
  {
    "id": "ph75975",
    "name": "LifeCare Chemist Pune 2",
    "lat": 18.531585,
    "lon": 73.825064,
    "city": "Pune",
    "pincode": "411011",
    "area": "Pune University",
    "district": "Pune",
    "services": [
      "home_delivery",
      "consultation"
    ],
    "delivery_km": 5,
    "rating": 4.3,
    "verified": true
  },
  {
    "id": "ph81140",
    "name": "HealthFirst Pune 3",
    "lat": 18.544097,
    "lon": 73.826913,
    "city": "Pune",
    "pincode": "411011",
    "area": "Pune University",
    "district": "Pune",
    "services": [
      "24x7",
      "home_delivery"
    ],
    "delivery_km": 5,
    "rating": 3.6,
    "verified": true
  },
  {
    "id": "ph45737",
    "name": "HealthFirst Pune 4",
    "lat": 18.541691,
    "lon": 73.827197,
    "city": "Pune",
    "pincode": "411011",
    "area": "Pune University",
    "district": "Pune",
    "services": [
      "24x7",
      "home_delivery"
    ],
    "delivery_km": 5,
    "rating": 4.3,
    "verified": false
  },
  {
    "id": "ph53819",
    "name": "HealthFirst Shivajinagar",
    "lat": 18.535614,
    "lon": 73.855685,
    "city": "Pune",
    "pincode": "411012",
    "area": "Shivajinagar",
    "district": "Pune",
    "services": [
      "home_delivery"
    ],
    "delivery_km": 15,
    "rating": 3.6,
    "verified": true
  },
  {
    "id": "ph56078",
    "name": "HealthBuddy Shivajinagar 2",
    "lat": 18.523111,
    "lon": 73.860478,
    "city": "Pune",
    "pincode": "411012",
    "area": "Shivajinagar",
    "district": "Pune",
    "services": [
      "online_ordering",
      "consultation"
    ],
    "delivery_km": 10,
    "rating": 4.4,
    "verified": true
  },
  {
    "id": "ph90254",
    "name": "CarePlus Pharmacy Shivajinagar 3",
    "lat": 18.533837,
    "lon": 73.84577,
    "city": "Pune",
    "pincode": "411012",
    "area": "Shivajinagar",
    "district": "Pune",
    "services": [
      "home_delivery"
    ],
    "delivery_km": 5,
    "rating": 4.8,
    "verified": true
  },
  {
    "id": "ph12079",
    "name": "LifeCare Chemist Shivajinagar 4",
    "lat": 18.532261,
    "lon": 73.850063,
    "city": "Pune",
    "pincode": "411012",
    "area": "Shivajinagar",
    "district": "Pune",
    "services": [
      "home_delivery",
      "online_ordering",
      "consultation"
    ],
    "delivery_km": 5,
    "rating": 4.4,
    "verified": true
  },
  {
    "id": "ph75791",
    "name": "Wellness Forever Kasba",
    "lat": 18.514594,
    "lon": 73.864269,
    "city": "Pune",
    "pincode": "411013",
    "area": "Kasba Peth",
    "district": "Pune",
    "services": [
      "home_delivery",
      "online_ordering",
      "consultation"
    ],
    "delivery_km": 7,
    "rating": 4.5,
    "verified": false
  },
  {
    "id": "ph85529",
    "name": "CarePlus Pharmacy Kasba 2",
    "lat": 18.523344,
    "lon": 73.857153,
    "city": "Pune",
    "pincode": "411013",
    "area": "Kasba Peth",
    "district": "Pune",
    "services": [
      "online_ordering",
      "consultation"
    ],
    "delivery_km": 10,
    "rating": 4.8,
    "verified": true
  },
  {
    "id": "ph44671",
    "name": "HealthBuddy Kasba 3",
    "lat": 18.516655,
    "lon": 73.862267,
    "city": "Pune",
    "pincode": "411013",
    "area": "Kasba Peth",
    "district": "Pune",
    "services": [
      "24x7",
      "home_delivery"
    ],
    "delivery_km": 15,
    "rating": 3.8,
    "verified": true
  },
  {
    "id": "ph94668",
    "name": "Dr Reddys Kasba 4",
    "lat": 18.524196,
    "lon": 73.855468,
    "city": "Pune",
    "pincode": "411013",
    "area": "Kasba Peth",
    "district": "Pune",
    "services": [
      "home_delivery",
      "consultation"
    ],
    "delivery_km": 7,
    "rating": 3.8,
    "verified": false
  },
  {
    "id": "ph99965",
    "name": "HealthFirst Model",
    "lat": 18.504025,
    "lon": 73.863311,
    "city": "Pune",
    "pincode": "411014",
    "area": "Model Colony",
    "district": "Pune",
    "services": [
      "home_delivery",
      "online_ordering",
      "consultation"
    ],
    "delivery_km": 10,
    "rating": 4.1,
    "verified": true
  },
  {
    "id": "ph96483",
    "name": "HealthBuddy Model 2",
    "lat": 18.490989,
    "lon": 73.873049,
    "city": "Pune",
    "pincode": "411014",
    "area": "Model Colony",
    "district": "Pune",
    "services": [
      "24x7",
      "home_delivery",
      "online_ordering"
    ],
    "delivery_km": 15,
    "rating": 4.5,
    "verified": true
  },
  {
    "id": "ph84797",
    "name": "Dr Reddys Model 3",
    "lat": 18.487539,
    "lon": 73.878776,
    "city": "Pune",
    "pincode": "411014",
    "area": "Model Colony",
    "district": "Pune",
    "services": [
      "24x7",
      "home_delivery"
    ],
    "delivery_km": 15,
    "rating": 4.5,
    "verified": true
  },
  {
    "id": "ph66263",
    "name": "Sanjeevani Medical Model 4",
    "lat": 18.487033,
    "lon": 73.868146,
    "city": "Pune",
    "pincode": "411014",
    "area": "Model Colony",
    "district": "Pune",
    "services": [
      "24x7",
      "home_delivery"
    ],
    "delivery_km": 5,
    "rating": 4.9,
    "verified": true
  },
  {
    "id": "ph11301",
    "name": "Fortis Pharmacy Sahakarnagar",
    "lat": 18.54437,
    "lon": 73.835706,
    "city": "Pune",
    "pincode": "411015",
    "area": "Sahakarnagar",
    "district": "Pune",
    "services": [
      "home_delivery",
      "online_ordering",
      "consultation"
    ],
    "delivery_km": 15,
    "rating": 3.7,
    "verified": true
  },
  {
    "id": "ph64039",
    "name": "MediMax Sahakarnagar 2",
    "lat": 18.553192,
    "lon": 73.837876,
    "city": "Pune",
    "pincode": "411015",
    "area": "Sahakarnagar",
    "district": "Pune",
    "services": [
      "home_delivery"
    ],
    "delivery_km": 5,
    "rating": 4.6,
    "verified": true
  },
  {
    "id": "ph35579",
    "name": "Sanjeevani Medical Sahakarnagar 3",
    "lat": 18.552153,
    "lon": 73.827403,
    "city": "Pune",
    "pincode": "411015",
    "area": "Sahakarnagar",
    "district": "Pune",
    "services": [
      "24x7",
      "home_delivery",
      "online_ordering"
    ],
    "delivery_km": 7,
    "rating": 3.7,
    "verified": true
  },
  {
    "id": "ph74370",
    "name": "MediHub Sahakarnagar 4",
    "lat": 18.544063,
    "lon": 73.84708,
    "city": "Pune",
    "pincode": "411015",
    "area": "Sahakarnagar",
    "district": "Pune",
    "services": [
      "24x7",
      "home_delivery"
    ],
    "delivery_km": 15,
    "rating": 4.2,
    "verified": true
  },
  {
    "id": "ph30973",
    "name": "HealthFirst Aundh",
    "lat": 18.553075,
    "lon": 73.808483,
    "city": "Pune",
    "pincode": "411016",
    "area": "Aundh",
    "district": "Pune",
    "services": [
      "24x7",
      "home_delivery",
      "online_ordering"
    ],
    "delivery_km": 15,
    "rating": 4.5,
    "verified": true
  },
  {
    "id": "ph80577",
    "name": "Wellness Forever Aundh 2",
    "lat": 18.552843,
    "lon": 73.79513,
    "city": "Pune",
    "pincode": "411016",
    "area": "Aundh",
    "district": "Pune",
    "services": [
      "online_ordering",
      "consultation"
    ],
    "delivery_km": 10,
    "rating": 3.8,
    "verified": false
  },
  {
    "id": "ph46370",
    "name": "Dr Reddys Aundh 3",
    "lat": 18.560454,
    "lon": 73.805863,
    "city": "Pune",
    "pincode": "411016",
    "area": "Aundh",
    "district": "Pune",
    "services": [
      "24x7",
      "home_delivery",
      "online_ordering"
    ],
    "delivery_km": 10,
    "rating": 4.1,
    "verified": false
  },
  {
    "id": "ph67070",
    "name": "VitalRx Aundh 4",
    "lat": 18.553319,
    "lon": 73.815391,
    "city": "Pune",
    "pincode": "411016",
    "area": "Aundh",
    "district": "Pune",
    "services": [
      "home_delivery",
      "consultation"
    ],
    "delivery_km": 15,
    "rating": 5.0,
    "verified": false
  },
  {
    "id": "ph51629",
    "name": "LifeCare Chemist Shivaji",
    "lat": 18.533831,
    "lon": 73.847691,
    "city": "Pune",
    "pincode": "411017",
    "area": "Shivaji Nagar",
    "district": "Pune",
    "services": [
      "home_delivery",
      "online_ordering",
      "consultation"
    ],
    "delivery_km": 5,
    "rating": 3.9,
    "verified": false
  },
  {
    "id": "ph90865",
    "name": "HealthFirst Shivaji 2",
    "lat": 18.523643,
    "lon": 73.854173,
    "city": "Pune",
    "pincode": "411017",
    "area": "Shivaji Nagar",
    "district": "Pune",
    "services": [
      "home_delivery",
      "consultation"
    ],
    "delivery_km": 7,
    "rating": 4.6,
    "verified": true
  },
  {
    "id": "ph78961",
    "name": "PharmEasy Store Shivaji 3",
    "lat": 18.52614,
    "lon": 73.860221,
    "city": "Pune",
    "pincode": "411017",
    "area": "Shivaji Nagar",
    "district": "Pune",
    "services": [
      "online_ordering",
      "consultation"
    ],
    "delivery_km": 10,
    "rating": 4.1,
    "verified": true
  },
  {
    "id": "ph31441",
    "name": "MediHub Shivaji 4",
    "lat": 18.524573,
    "lon": 73.847616,
    "city": "Pune",
    "pincode": "411017",
    "area": "Shivaji Nagar",
    "district": "Pune",
    "services": [
      "home_delivery",
      "consultation"
    ],
    "delivery_km": 5,
    "rating": 4.4,
    "verified": true
  },
  {
    "id": "ph39688",
    "name": "Sanjeevani Medical Karve",
    "lat": 18.481954,
    "lon": 73.827369,
    "city": "Pune",
    "pincode": "411018",
    "area": "Karve Nagar",
    "district": "Pune",
    "services": [
      "24x7",
      "home_delivery",
      "online_ordering"
    ],
    "delivery_km": 15,
    "rating": 4.3,
    "verified": false
  },
  {
    "id": "ph39520",
    "name": "Sanjeevani Medical Karve 2",
    "lat": 18.49363,
    "lon": 73.815896,
    "city": "Pune",
    "pincode": "411018",
    "area": "Karve Nagar",
    "district": "Pune",
    "services": [
      "online_ordering",
      "consultation"
    ],
    "delivery_km": 10,
    "rating": 4.9,
    "verified": true
  },
  {
    "id": "ph30009",
    "name": "MedPlus Karve 3",
    "lat": 18.485502,
    "lon": 73.820318,
    "city": "Pune",
    "pincode": "411018",
    "area": "Karve Nagar",
    "district": "Pune",
    "services": [
      "24x7",
      "home_delivery"
    ],
    "delivery_km": 7,
    "rating": 4.5,
    "verified": false
  },
  {
    "id": "ph13275",
    "name": "Sanjeevani Medical Karve 4",
    "lat": 18.495551,
    "lon": 73.833996,
    "city": "Pune",
    "pincode": "411018",
    "area": "Karve Nagar",
    "district": "Pune",
    "services": [
      "24x7",
      "home_delivery"
    ],
    "delivery_km": 7,
    "rating": 4.7,
    "verified": true
  },
  {
    "id": "ph63309",
    "name": "Netmeds Pharmacy Dhankawadi",
    "lat": 18.458929,
    "lon": 73.840559,
    "city": "Pune",
    "pincode": "411019",
    "area": "Dhankawadi",
    "district": "Pune",
    "services": [
      "home_delivery"
    ],
    "delivery_km": 7,
    "rating": 4.6,
    "verified": false
  },
  {
    "id": "ph40560",
    "name": "Apollo Pharmacy Dhankawadi 2",
    "lat": 18.452897,
    "lon": 73.854006,
    "city": "Pune",
    "pincode": "411019",
    "area": "Dhankawadi",
    "district": "Pune",
    "services": [
      "home_delivery",
      "consultation"
    ],
    "delivery_km": 5,
    "rating": 3.9,
    "verified": true
  },
  {
    "id": "ph29057",
    "name": "1mg Store Dhankawadi 3",
    "lat": 18.452385,
    "lon": 73.86044,
    "city": "Pune",
    "pincode": "411019",
    "area": "Dhankawadi",
    "district": "Pune",
    "services": [
      "home_delivery",
      "consultation"
    ],
    "delivery_km": 5,
    "rating": 4.8,
    "verified": true
  },
  {
    "id": "ph68929",
    "name": "HealthFirst Dhankawadi 4",
    "lat": 18.441628,
    "lon": 73.841943,
    "city": "Pune",
    "pincode": "411019",
    "area": "Dhankawadi",
    "district": "Pune",
    "services": [
      "online_ordering",
      "consultation"
    ],
    "delivery_km": 10,
    "rating": 4.2,
    "verified": true
  },
  {
    "id": "ph79482",
    "name": "Sun Pharma Outlet Bibvewadi",
    "lat": 18.470544,
    "lon": 73.874344,
    "city": "Pune",
    "pincode": "411020",
    "area": "Bibvewadi",
    "district": "Pune",
    "services": [
      "home_delivery",
      "consultation"
    ],
    "delivery_km": 5,
    "rating": 4.9,
    "verified": false
  },
  {
    "id": "ph78441",
    "name": "LifeCare Chemist Bibvewadi 2",
    "lat": 18.468381,
    "lon": 73.861298,
    "city": "Pune",
    "pincode": "411020",
    "area": "Bibvewadi",
    "district": "Pune",
    "services": [
      "online_ordering",
      "consultation"
    ],
    "delivery_km": 10,
    "rating": 4.3,
    "verified": true
  },
  {
    "id": "ph98412",
    "name": "MediHub Bibvewadi 3",
    "lat": 18.457004,
    "lon": 73.861843,
    "city": "Pune",
    "pincode": "411020",
    "area": "Bibvewadi",
    "district": "Pune",
    "services": [
      "online_ordering",
      "consultation"
    ],
    "delivery_km": 10,
    "rating": 3.7,
    "verified": true
  },
  {
    "id": "ph61467",
    "name": "HealthFirst Bibvewadi 4",
    "lat": 18.470936,
    "lon": 73.853887,
    "city": "Pune",
    "pincode": "411020",
    "area": "Bibvewadi",
    "district": "Pune",
    "services": [
      "online_ordering",
      "consultation"
    ],
    "delivery_km": 5,
    "rating": 4.4,
    "verified": true
  },
  {
    "id": "ph42355",
    "name": "Netmeds Pharmacy Kothrud",
    "lat": 18.50395,
    "lon": 73.797476,
    "city": "Pune",
    "pincode": "411021",
    "area": "Kothrud",
    "district": "Pune",
    "services": [
      "home_delivery",
      "online_ordering",
      "consultation"
    ],
    "delivery_km": 7,
    "rating": 4.3,
    "verified": false
  },
  {
    "id": "ph69525",
    "name": "Metropolis Healthcare Kothrud 2",
    "lat": 18.505307,
    "lon": 73.803119,
    "city": "Pune",
    "pincode": "411021",
    "area": "Kothrud",
    "district": "Pune",
    "services": [
      "home_delivery"
    ],
    "delivery_km": 15,
    "rating": 4.2,
    "verified": false
  },
  {
    "id": "ph90746",
    "name": "PharmaOne Kothrud 3",
    "lat": 18.500173,
    "lon": 73.808766,
    "city": "Pune",
    "pincode": "411021",
    "area": "Kothrud",
    "district": "Pune",
    "services": [
      "home_delivery"
    ],
    "delivery_km": 15,
    "rating": 3.6,
    "verified": true
  },
  {
    "id": "ph37077",
    "name": "HealthFirst Kothrud 4",
    "lat": 18.511567,
    "lon": 73.812542,
    "city": "Pune",
    "pincode": "411021",
    "area": "Kothrud",
    "district": "Pune",
    "services": [
      "online_ordering",
      "consultation"
    ],
    "delivery_km": 5,
    "rating": 4.0,
    "verified": true
  },
  {
    "id": "ph71098",
    "name": "MedPlus Hadapsar",
    "lat": 18.510538,
    "lon": 73.923097,
    "city": "Pune",
    "pincode": "411027",
    "area": "Hadapsar",
    "district": "Pune",
    "services": [
      "24x7",
      "home_delivery"
    ],
    "delivery_km": 15,
    "rating": 4.6,
    "verified": true
  },
  {
    "id": "ph93181",
    "name": "Fortis Pharmacy Hadapsar 2",
    "lat": 18.506854,
    "lon": 73.916277,
    "city": "Pune",
    "pincode": "411027",
    "area": "Hadapsar",
    "district": "Pune",
    "services": [
      "online_ordering",
      "consultation"
    ],
    "delivery_km": 10,
    "rating": 3.9,
    "verified": true
  },
  {
    "id": "ph39514",
    "name": "HealthFirst Hadapsar 3",
    "lat": 18.509744,
    "lon": 73.920395,
    "city": "Pune",
    "pincode": "411027",
    "area": "Hadapsar",
    "district": "Pune",
    "services": [
      "home_delivery",
      "online_ordering",
      "consultation"
    ],
    "delivery_km": 7,
    "rating": 3.6,
    "verified": true
  },
  {
    "id": "ph35920",
    "name": "Dr Reddys Hadapsar 4",
    "lat": 18.50974,
    "lon": 73.921203,
    "city": "Pune",
    "pincode": "411027",
    "area": "Hadapsar",
    "district": "Pune",
    "services": [
      "home_delivery"
    ],
    "delivery_km": 15,
    "rating": 4.9,
    "verified": false
  },
  {
    "id": "ph86632",
    "name": "1mg Store Hadapsar",
    "lat": 18.501053,
    "lon": 73.925518,
    "city": "Pune",
    "pincode": "411028",
    "area": "Hadapsar Industrial",
    "district": "Pune",
    "services": [
      "online_ordering",
      "consultation"
    ],
    "delivery_km": 5,
    "rating": 4.9,
    "verified": true
  },
  {
    "id": "ph79140",
    "name": "VitalRx Hadapsar 2",
    "lat": 18.499312,
    "lon": 73.923736,
    "city": "Pune",
    "pincode": "411028",
    "area": "Hadapsar Industrial",
    "district": "Pune",
    "services": [
      "24x7",
      "home_delivery",
      "online_ordering"
    ],
    "delivery_km": 10,
    "rating": 4.2,
    "verified": false
  },
  {
    "id": "ph71597",
    "name": "Sun Pharma Outlet Hadapsar 3",
    "lat": 18.497946,
    "lon": 73.92983,
    "city": "Pune",
    "pincode": "411028",
    "area": "Hadapsar Industrial",
    "district": "Pune",
    "services": [
      "home_delivery"
    ],
    "delivery_km": 15,
    "rating": 4.3,
    "verified": true
  },
  {
    "id": "ph31005",
    "name": "PharmEasy Store Hadapsar 4",
    "lat": 18.504599,
    "lon": 73.931241,
    "city": "Pune",
    "pincode": "411028",
    "area": "Hadapsar Industrial",
    "district": "Pune",
    "services": [
      "24x7",
      "home_delivery"
    ],
    "delivery_km": 15,
    "rating": 4.8,
    "verified": false
  },
  {
    "id": "ph71839",
    "name": "1mg Store Pune",
    "lat": 18.544285,
    "lon": 73.82899,
    "city": "Pune",
    "pincode": "411029",
    "area": "Pune University",
    "district": "Pune",
    "services": [
      "24x7",
      "home_delivery",
      "online_ordering"
    ],
    "delivery_km": 5,
    "rating": 3.5,
    "verified": true
  },
  {
    "id": "ph10129",
    "name": "PharmEasy Store Pune 2",
    "lat": 18.549283,
    "lon": 73.816704,
    "city": "Pune",
    "pincode": "411029",
    "area": "Pune University",
    "district": "Pune",
    "services": [
      "home_delivery",
      "consultation"
    ],
    "delivery_km": 5,
    "rating": 4.9,
    "verified": true
  },
  {
    "id": "ph29076",
    "name": "CureWell Pune 3",
    "lat": 18.53941,
    "lon": 73.825794,
    "city": "Pune",
    "pincode": "411029",
    "area": "Pune University",
    "district": "Pune",
    "services": [
      "24x7",
      "home_delivery",
      "online_ordering"
    ],
    "delivery_km": 5,
    "rating": 4.0,
    "verified": false
  },
  {
    "id": "ph63656",
    "name": "Metropolis Healthcare Pune 4",
    "lat": 18.548632,
    "lon": 73.825442,
    "city": "Pune",
    "pincode": "411029",
    "area": "Pune University",
    "district": "Pune",
    "services": [
      "online_ordering",
      "consultation"
    ],
    "delivery_km": 15,
    "rating": 4.2,
    "verified": true
  },
  {
    "id": "ph62600",
    "name": "MediHub Kothrud",
    "lat": 18.497772,
    "lon": 73.809639,
    "city": "Pune",
    "pincode": "411030",
    "area": "Kothrud",
    "district": "Pune",
    "services": [
      "online_ordering",
      "consultation"
    ],
    "delivery_km": 15,
    "rating": 4.6,
    "verified": true
  },
  {
    "id": "ph98295",
    "name": "Metropolis Healthcare Kothrud 2",
    "lat": 18.500599,
    "lon": 73.799748,
    "city": "Pune",
    "pincode": "411030",
    "area": "Kothrud",
    "district": "Pune",
    "services": [
      "home_delivery",
      "consultation"
    ],
    "delivery_km": 15,
    "rating": 4.6,
    "verified": true
  },
  {
    "id": "ph96264",
    "name": "PharmaOne Kothrud 3",
    "lat": 18.497712,
    "lon": 73.800126,
    "city": "Pune",
    "pincode": "411030",
    "area": "Kothrud",
    "district": "Pune",
    "services": [
      "online_ordering",
      "consultation"
    ],
    "delivery_km": 10,
    "rating": 3.7,
    "verified": true
  },
  {
    "id": "ph62494",
    "name": "Sun Pharma Outlet Kothrud 4",
    "lat": 18.493755,
    "lon": 73.80647,
    "city": "Pune",
    "pincode": "411030",
    "area": "Kothrud",
    "district": "Pune",
    "services": [
      "24x7",
      "home_delivery"
    ],
    "delivery_km": 15,
    "rating": 4.1,
    "verified": true
  },
  {
    "id": "ph11595",
    "name": "Sanjeevani Medical Khadki",
    "lat": 18.548485,
    "lon": 73.852622,
    "city": "Pune",
    "pincode": "411033",
    "area": "Khadki",
    "district": "Pune",
    "services": [
      "home_delivery",
      "online_ordering",
      "consultation"
    ],
    "delivery_km": 7,
    "rating": 3.7,
    "verified": true
  },
  {
    "id": "ph69745",
    "name": "Metropolis Healthcare Khadki 2",
    "lat": 18.557153,
    "lon": 73.854679,
    "city": "Pune",
    "pincode": "411033",
    "area": "Khadki",
    "district": "Pune",
    "services": [
      "home_delivery",
      "online_ordering",
      "consultation"
    ],
    "delivery_km": 10,
    "rating": 4.6,
    "verified": false
  },
  {
    "id": "ph36521",
    "name": "Sun Pharma Outlet Khadki 3",
    "lat": 18.56108,
    "lon": 73.861451,
    "city": "Pune",
    "pincode": "411033",
    "area": "Khadki",
    "district": "Pune",
    "services": [
      "home_delivery",
      "online_ordering",
      "consultation"
    ],
    "delivery_km": 7,
    "rating": 4.3,
    "verified": false
  },
  {
    "id": "ph13236",
    "name": "Wellness Forever Khadki 4",
    "lat": 18.553367,
    "lon": 73.858524,
    "city": "Pune",
    "pincode": "411033",
    "area": "Khadki",
    "district": "Pune",
    "services": [
      "home_delivery",
      "online_ordering",
      "consultation"
    ],
    "delivery_km": 7,
    "rating": 3.9,
    "verified": false
  },
  {
    "id": "ph93563",
    "name": "Apollo Pharmacy Kharadi",
    "lat": 18.546796,
    "lon": 73.950119,
    "city": "Pune",
    "pincode": "411037",
    "area": "Kharadi",
    "district": "Pune",
    "services": [
      "24x7",
      "home_delivery"
    ],
    "delivery_km": 15,
    "rating": 4.5,
    "verified": true
  },
  {
    "id": "ph79028",
    "name": "MediMax Kharadi 2",
    "lat": 18.556366,
    "lon": 73.960532,
    "city": "Pune",
    "pincode": "411037",
    "area": "Kharadi",
    "district": "Pune",
    "services": [
      "home_delivery"
    ],
    "delivery_km": 5,
    "rating": 4.8,
    "verified": false
  },
  {
    "id": "ph92573",
    "name": "PharmEasy Store Kharadi 3",
    "lat": 18.549321,
    "lon": 73.945304,
    "city": "Pune",
    "pincode": "411037",
    "area": "Kharadi",
    "district": "Pune",
    "services": [
      "online_ordering",
      "consultation"
    ],
    "delivery_km": 15,
    "rating": 4.7,
    "verified": true
  },
  {
    "id": "ph66360",
    "name": "CarePlus Pharmacy Kharadi 4",
    "lat": 18.553161,
    "lon": 73.954867,
    "city": "Pune",
    "pincode": "411037",
    "area": "Kharadi",
    "district": "Pune",
    "services": [
      "home_delivery",
      "online_ordering",
      "consultation"
    ],
    "delivery_km": 7,
    "rating": 4.7,
    "verified": true
  },
  {
    "id": "ph85266",
    "name": "Apollo Pharmacy Kondhwa",
    "lat": 18.462449,
    "lon": 73.886719,
    "city": "Pune",
    "pincode": "411038",
    "area": "Kondhwa",
    "district": "Pune",
    "services": [
      "24x7",
      "home_delivery",
      "online_ordering"
    ],
    "delivery_km": 15,
    "rating": 4.1,
    "verified": true
  },
  {
    "id": "ph65134",
    "name": "VitalRx Kondhwa 2",
    "lat": 18.465877,
    "lon": 73.891023,
    "city": "Pune",
    "pincode": "411038",
    "area": "Kondhwa",
    "district": "Pune",
    "services": [
      "home_delivery",
      "online_ordering",
      "consultation"
    ],
    "delivery_km": 7,
    "rating": 4.3,
    "verified": true
  },
  {
    "id": "ph41301",
    "name": "CarePlus Pharmacy Kondhwa 3",
    "lat": 18.469562,
    "lon": 73.894034,
    "city": "Pune",
    "pincode": "411038",
    "area": "Kondhwa",
    "district": "Pune",
    "services": [
      "home_delivery",
      "online_ordering",
      "consultation"
    ],
    "delivery_km": 7,
    "rating": 4.9,
    "verified": false
  },
  {
    "id": "ph11147",
    "name": "VitalRx Kondhwa 4",
    "lat": 18.461847,
    "lon": 73.893257,
    "city": "Pune",
    "pincode": "411038",
    "area": "Kondhwa",
    "district": "Pune",
    "services": [
      "24x7",
      "home_delivery"
    ],
    "delivery_km": 15,
    "rating": 3.6,
    "verified": false
  },
  {
    "id": "ph59739",
    "name": "1mg Store Shivaji",
    "lat": 18.525733,
    "lon": 73.858844,
    "city": "Pune",
    "pincode": "411041",
    "area": "Shivaji Nagar",
    "district": "Pune",
    "services": [
      "24x7",
      "home_delivery",
      "online_ordering"
    ],
    "delivery_km": 10,
    "rating": 3.9,
    "verified": false
  },
  {
    "id": "ph33466",
    "name": "CarePlus Pharmacy Shivaji 2",
    "lat": 18.521656,
    "lon": 73.843512,
    "city": "Pune",
    "pincode": "411041",
    "area": "Shivaji Nagar",
    "district": "Pune",
    "services": [
      "home_delivery"
    ],
    "delivery_km": 15,
    "rating": 4.9,
    "verified": true
  },
  {
    "id": "ph16890",
    "name": "Sun Pharma Outlet Shivaji 3",
    "lat": 18.541519,
    "lon": 73.848371,
    "city": "Pune",
    "pincode": "411041",
    "area": "Shivaji Nagar",
    "district": "Pune",
    "services": [
      "24x7",
      "home_delivery"
    ],
    "delivery_km": 15,
    "rating": 4.9,
    "verified": true
  },
  {
    "id": "ph67986",
    "name": "PharmaOne Shivaji 4",
    "lat": 18.522878,
    "lon": 73.858398,
    "city": "Pune",
    "pincode": "411041",
    "area": "Shivaji Nagar",
    "district": "Pune",
    "services": [
      "24x7",
      "home_delivery"
    ],
    "delivery_km": 7,
    "rating": 4.9,
    "verified": true
  },
  {
    "id": "ph78060",
    "name": "MediMax Hinjewadi",
    "lat": 18.587582,
    "lon": 73.738384,
    "city": "Pune",
    "pincode": "411045",
    "area": "Hinjewadi",
    "district": "Pune",
    "services": [
      "24x7",
      "home_delivery",
      "online_ordering"
    ],
    "delivery_km": 7,
    "rating": 4.6,
    "verified": true
  },
  {
    "id": "ph41353",
    "name": "Metropolis Healthcare Hinjewadi 2",
    "lat": 18.585607,
    "lon": 73.730538,
    "city": "Pune",
    "pincode": "411045",
    "area": "Hinjewadi",
    "district": "Pune",
    "services": [
      "online_ordering",
      "consultation"
    ],
    "delivery_km": 10,
    "rating": 3.5,
    "verified": true
  },
  {
    "id": "ph69852",
    "name": "PharmaOne Hinjewadi 3",
    "lat": 18.593911,
    "lon": 73.739072,
    "city": "Pune",
    "pincode": "411045",
    "area": "Hinjewadi",
    "district": "Pune",
    "services": [
      "online_ordering",
      "consultation"
    ],
    "delivery_km": 10,
    "rating": 4.5,
    "verified": true
  },
  {
    "id": "ph35366",
    "name": "Netmeds Pharmacy Hinjewadi 4",
    "lat": 18.594409,
    "lon": 73.74789,
    "city": "Pune",
    "pincode": "411045",
    "area": "Hinjewadi",
    "district": "Pune",
    "services": [
      "home_delivery"
    ],
    "delivery_km": 15,
    "rating": 3.7,
    "verified": true
  },
  {
    "id": "ph23086",
    "name": "MedPlus Aundh",
    "lat": 18.550778,
    "lon": 73.80863,
    "city": "Pune",
    "pincode": "411046",
    "area": "Aundh",
    "district": "Pune",
    "services": [
      "home_delivery"
    ],
    "delivery_km": 7,
    "rating": 4.6,
    "verified": true
  },
  {
    "id": "ph45586",
    "name": "MediHub Aundh 2",
    "lat": 18.57107,
    "lon": 73.814029,
    "city": "Pune",
    "pincode": "411046",
    "area": "Aundh",
    "district": "Pune",
    "services": [
      "24x7",
      "home_delivery",
      "online_ordering"
    ],
    "delivery_km": 7,
    "rating": 4.3,
    "verified": true
  },
  {
    "id": "ph90687",
    "name": "PharmaOne Aundh 3",
    "lat": 18.553126,
    "lon": 73.808656,
    "city": "Pune",
    "pincode": "411046",
    "area": "Aundh",
    "district": "Pune",
    "services": [
      "home_delivery",
      "consultation"
    ],
    "delivery_km": 10,
    "rating": 4.5,
    "verified": true
  },
  {
    "id": "ph96161",
    "name": "PharmEasy Store Aundh 4",
    "lat": 18.566918,
    "lon": 73.802999,
    "city": "Pune",
    "pincode": "411046",
    "area": "Aundh",
    "district": "Pune",
    "services": [
      "home_delivery"
    ],
    "delivery_km": 15,
    "rating": 4.6,
    "verified": true
  },
  {
    "id": "ph80339",
    "name": "Sun Pharma Outlet Nagpur",
    "lat": 21.14723,
    "lon": 79.099286,
    "city": "Nagpur",
    "pincode": "440001",
    "area": "Nagpur GPO",
    "district": "Nagpur",
    "services": [
      "online_ordering",
      "consultation"
    ],
    "delivery_km": 15,
    "rating": 4.2,
    "verified": true
  },
  {
    "id": "ph26688",
    "name": "1mg Store Nagpur 2",
    "lat": 21.148327,
    "lon": 79.084514,
    "city": "Nagpur",
    "pincode": "440001",
    "area": "Nagpur GPO",
    "district": "Nagpur",
    "services": [
      "home_delivery",
      "online_ordering",
      "consultation"
    ],
    "delivery_km": 15,
    "rating": 4.9,
    "verified": true
  },
  {
    "id": "ph22008",
    "name": "LifeCare Chemist Nagpur 3",
    "lat": 21.14411,
    "lon": 79.090795,
    "city": "Nagpur",
    "pincode": "440001",
    "area": "Nagpur GPO",
    "district": "Nagpur",
    "services": [
      "home_delivery",
      "online_ordering",
      "consultation"
    ],
    "delivery_km": 10,
    "rating": 4.9,
    "verified": false
  },
  {
    "id": "ph71980",
    "name": "LifeCare Chemist Nagpur 4",
    "lat": 21.148926,
    "lon": 79.086178,
    "city": "Nagpur",
    "pincode": "440001",
    "area": "Nagpur GPO",
    "district": "Nagpur",
    "services": [
      "home_delivery",
      "online_ordering",
      "consultation"
    ],
    "delivery_km": 5,
    "rating": 4.9,
    "verified": false
  },
  {
    "id": "ph83924",
    "name": "Sanjeevani Medical Nagpur 5",
    "lat": 21.141494,
    "lon": 79.090858,
    "city": "Nagpur",
    "pincode": "440001",
    "area": "Nagpur GPO",
    "district": "Nagpur",
    "services": [
      "home_delivery",
      "consultation"
    ],
    "delivery_km": 15,
    "rating": 4.6,
    "verified": false
  },
  {
    "id": "ph45752",
    "name": "Netmeds Pharmacy Sitabuldi",
    "lat": 21.141019,
    "lon": 79.079148,
    "city": "Nagpur",
    "pincode": "440002",
    "area": "Sitabuldi",
    "district": "Nagpur",
    "services": [
      "24x7",
      "home_delivery",
      "online_ordering"
    ],
    "delivery_km": 15,
    "rating": 4.1,
    "verified": false
  },
  {
    "id": "ph46771",
    "name": "Metropolis Healthcare Sitabuldi 2",
    "lat": 21.143556,
    "lon": 79.085507,
    "city": "Nagpur",
    "pincode": "440002",
    "area": "Sitabuldi",
    "district": "Nagpur",
    "services": [
      "online_ordering",
      "consultation"
    ],
    "delivery_km": 5,
    "rating": 3.6,
    "verified": false
  },
  {
    "id": "ph51608",
    "name": "Wellness Forever Sitabuldi 3",
    "lat": 21.140023,
    "lon": 79.091569,
    "city": "Nagpur",
    "pincode": "440002",
    "area": "Sitabuldi",
    "district": "Nagpur",
    "services": [
      "home_delivery",
      "consultation"
    ],
    "delivery_km": 15,
    "rating": 3.9,
    "verified": false
  },
  {
    "id": "ph28737",
    "name": "MedPlus Sitabuldi 4",
    "lat": 21.148301,
    "lon": 79.081637,
    "city": "Nagpur",
    "pincode": "440002",
    "area": "Sitabuldi",
    "district": "Nagpur",
    "services": [
      "home_delivery"
    ],
    "delivery_km": 5,
    "rating": 4.4,
    "verified": true
  },
  {
    "id": "ph12394",
    "name": "Fortis Pharmacy Sitabuldi 5",
    "lat": 21.151359,
    "lon": 79.088584,
    "city": "Nagpur",
    "pincode": "440002",
    "area": "Sitabuldi",
    "district": "Nagpur",
    "services": [
      "home_delivery",
      "consultation"
    ],
    "delivery_km": 7,
    "rating": 3.5,
    "verified": true
  },
  {
    "id": "ph82346",
    "name": "LifeCare Chemist Gandhibagh",
    "lat": 21.147743,
    "lon": 79.09081,
    "city": "Nagpur",
    "pincode": "440003",
    "area": "Gandhibagh",
    "district": "Nagpur",
    "services": [
      "home_delivery"
    ],
    "delivery_km": 10,
    "rating": 4.5,
    "verified": true
  },
  {
    "id": "ph15909",
    "name": "VitalRx Gandhibagh 2",
    "lat": 21.152626,
    "lon": 79.091966,
    "city": "Nagpur",
    "pincode": "440003",
    "area": "Gandhibagh",
    "district": "Nagpur",
    "services": [
      "home_delivery",
      "consultation"
    ],
    "delivery_km": 7,
    "rating": 4.8,
    "verified": true
  },
  {
    "id": "ph60028",
    "name": "LifeCare Chemist Gandhibagh 3",
    "lat": 21.144319,
    "lon": 79.079363,
    "city": "Nagpur",
    "pincode": "440003",
    "area": "Gandhibagh",
    "district": "Nagpur",
    "services": [
      "24x7",
      "home_delivery"
    ],
    "delivery_km": 15,
    "rating": 4.6,
    "verified": true
  },
  {
    "id": "ph22100",
    "name": "CarePlus Pharmacy Gandhibagh 4",
    "lat": 21.149178,
    "lon": 79.091079,
    "city": "Nagpur",
    "pincode": "440003",
    "area": "Gandhibagh",
    "district": "Nagpur",
    "services": [
      "home_delivery",
      "consultation"
    ],
    "delivery_km": 10,
    "rating": 4.1,
    "verified": true
  },
  {
    "id": "ph40275",
    "name": "MediMax Gandhibagh 5",
    "lat": 21.150477,
    "lon": 79.089153,
    "city": "Nagpur",
    "pincode": "440003",
    "area": "Gandhibagh",
    "district": "Nagpur",
    "services": [
      "online_ordering",
      "consultation"
    ],
    "delivery_km": 5,
    "rating": 3.7,
    "verified": true
  },
  {
    "id": "ph98334",
    "name": "HealthFirst Civil",
    "lat": 21.14379,
    "lon": 79.088369,
    "city": "Nagpur",
    "pincode": "440010",
    "area": "Civil Lines",
    "district": "Nagpur",
    "services": [
      "24x7",
      "home_delivery",
      "online_ordering"
    ],
    "delivery_km": 5,
    "rating": 3.8,
    "verified": true
  },
  {
    "id": "ph67028",
    "name": "PharmEasy Store Civil 2",
    "lat": 21.155506,
    "lon": 79.089827,
    "city": "Nagpur",
    "pincode": "440010",
    "area": "Civil Lines",
    "district": "Nagpur",
    "services": [
      "home_delivery",
      "consultation"
    ],
    "delivery_km": 7,
    "rating": 3.8,
    "verified": false
  },
  {
    "id": "ph86290",
    "name": "Netmeds Pharmacy Civil 3",
    "lat": 21.150111,
    "lon": 79.0863,
    "city": "Nagpur",
    "pincode": "440010",
    "area": "Civil Lines",
    "district": "Nagpur",
    "services": [
      "home_delivery",
      "online_ordering",
      "consultation"
    ],
    "delivery_km": 7,
    "rating": 3.8,
    "verified": false
  },
  {
    "id": "ph78921",
    "name": "Apollo Pharmacy Civil 4",
    "lat": 21.140621,
    "lon": 79.090774,
    "city": "Nagpur",
    "pincode": "440010",
    "area": "Civil Lines",
    "district": "Nagpur",
    "services": [
      "online_ordering",
      "consultation"
    ],
    "delivery_km": 5,
    "rating": 3.8,
    "verified": true
  },
  {
    "id": "ph23463",
    "name": "Fortis Pharmacy Civil 5",
    "lat": 21.149517,
    "lon": 79.087693,
    "city": "Nagpur",
    "pincode": "440010",
    "area": "Civil Lines",
    "district": "Nagpur",
    "services": [
      "home_delivery",
      "online_ordering",
      "consultation"
    ],
    "delivery_km": 15,
    "rating": 3.8,
    "verified": true
  },
  {
    "id": "ph30236",
    "name": "LifeCare Chemist Dharampeth",
    "lat": 21.129882,
    "lon": 79.066576,
    "city": "Nagpur",
    "pincode": "440012",
    "area": "Dharampeth",
    "district": "Nagpur",
    "services": [
      "home_delivery"
    ],
    "delivery_km": 10,
    "rating": 3.6,
    "verified": true
  },
  {
    "id": "ph76716",
    "name": "1mg Store Dharampeth 2",
    "lat": 21.122383,
    "lon": 79.066218,
    "city": "Nagpur",
    "pincode": "440012",
    "area": "Dharampeth",
    "district": "Nagpur",
    "services": [
      "home_delivery"
    ],
    "delivery_km": 5,
    "rating": 4.7,
    "verified": true
  },
  {
    "id": "ph51997",
    "name": "Apollo Pharmacy Dharampeth 3",
    "lat": 21.131276,
    "lon": 79.07082,
    "city": "Nagpur",
    "pincode": "440012",
    "area": "Dharampeth",
    "district": "Nagpur",
    "services": [
      "home_delivery",
      "online_ordering",
      "consultation"
    ],
    "delivery_km": 15,
    "rating": 3.7,
    "verified": false
  },
  {
    "id": "ph99220",
    "name": "1mg Store Dharampeth 4",
    "lat": 21.130133,
    "lon": 79.071916,
    "city": "Nagpur",
    "pincode": "440012",
    "area": "Dharampeth",
    "district": "Nagpur",
    "services": [
      "24x7",
      "home_delivery",
      "online_ordering"
    ],
    "delivery_km": 7,
    "rating": 4.1,
    "verified": true
  },
  {
    "id": "ph62532",
    "name": "Wellness Forever Dharampeth 5",
    "lat": 21.129581,
    "lon": 79.068115,
    "city": "Nagpur",
    "pincode": "440012",
    "area": "Dharampeth",
    "district": "Nagpur",
    "services": [
      "24x7",
      "home_delivery"
    ],
    "delivery_km": 7,
    "rating": 3.5,
    "verified": true
  },
  {
    "id": "ph77747",
    "name": "MedPlus Laxmi",
    "lat": 21.149247,
    "lon": 79.081741,
    "city": "Nagpur",
    "pincode": "440013",
    "area": "Laxmi Nagar",
    "district": "Nagpur",
    "services": [
      "online_ordering",
      "consultation"
    ],
    "delivery_km": 7,
    "rating": 4.9,
    "verified": true
  },
  {
    "id": "ph21484",
    "name": "CarePlus Pharmacy Laxmi 2",
    "lat": 21.144106,
    "lon": 79.081624,
    "city": "Nagpur",
    "pincode": "440013",
    "area": "Laxmi Nagar",
    "district": "Nagpur",
    "services": [
      "24x7",
      "home_delivery"
    ],
    "delivery_km": 7,
    "rating": 3.5,
    "verified": false
  },
  {
    "id": "ph24121",
    "name": "Sanjeevani Medical Laxmi 3",
    "lat": 21.142768,
    "lon": 79.087017,
    "city": "Nagpur",
    "pincode": "440013",
    "area": "Laxmi Nagar",
    "district": "Nagpur",
    "services": [
      "24x7",
      "home_delivery",
      "online_ordering"
    ],
    "delivery_km": 10,
    "rating": 4.4,
    "verified": true
  },
  {
    "id": "ph56711",
    "name": "Netmeds Pharmacy Laxmi 4",
    "lat": 21.146437,
    "lon": 79.091018,
    "city": "Nagpur",
    "pincode": "440013",
    "area": "Laxmi Nagar",
    "district": "Nagpur",
    "services": [
      "24x7",
      "home_delivery",
      "online_ordering"
    ],
    "delivery_km": 15,
    "rating": 4.8,
    "verified": true
  },
  {
    "id": "ph80869",
    "name": "Fortis Pharmacy Laxmi 5",
    "lat": 21.140813,
    "lon": 79.089082,
    "city": "Nagpur",
    "pincode": "440013",
    "area": "Laxmi Nagar",
    "district": "Nagpur",
    "services": [
      "24x7",
      "home_delivery",
      "online_ordering"
    ],
    "delivery_km": 15,
    "rating": 3.5,
    "verified": true
  },
  {
    "id": "ph10345",
    "name": "Apollo Pharmacy Ajni",
    "lat": 21.152094,
    "lon": 79.105975,
    "city": "Nagpur",
    "pincode": "440015",
    "area": "Ajni",
    "district": "Nagpur",
    "services": [
      "home_delivery",
      "consultation"
    ],
    "delivery_km": 10,
    "rating": 4.4,
    "verified": true
  },
  {
    "id": "ph53054",
    "name": "CureWell Ajni 2",
    "lat": 21.148308,
    "lon": 79.093191,
    "city": "Nagpur",
    "pincode": "440015",
    "area": "Ajni",
    "district": "Nagpur",
    "services": [
      "24x7",
      "home_delivery",
      "online_ordering"
    ],
    "delivery_km": 7,
    "rating": 4.1,
    "verified": true
  },
  {
    "id": "ph86360",
    "name": "Sanjeevani Medical Ajni 3",
    "lat": 21.156756,
    "lon": 79.106599,
    "city": "Nagpur",
    "pincode": "440015",
    "area": "Ajni",
    "district": "Nagpur",
    "services": [
      "24x7",
      "home_delivery",
      "online_ordering"
    ],
    "delivery_km": 5,
    "rating": 4.5,
    "verified": false
  },
  {
    "id": "ph89473",
    "name": "MedPlus Ajni 4",
    "lat": 21.160704,
    "lon": 79.102194,
    "city": "Nagpur",
    "pincode": "440015",
    "area": "Ajni",
    "district": "Nagpur",
    "services": [
      "online_ordering",
      "consultation"
    ],
    "delivery_km": 7,
    "rating": 4.0,
    "verified": false
  },
  {
    "id": "ph36921",
    "name": "1mg Store Ajni 5",
    "lat": 21.160591,
    "lon": 79.097257,
    "city": "Nagpur",
    "pincode": "440015",
    "area": "Ajni",
    "district": "Nagpur",
    "services": [
      "online_ordering",
      "consultation"
    ],
    "delivery_km": 5,
    "rating": 3.8,
    "verified": true
  },
  {
    "id": "ph90606",
    "name": "Metropolis Healthcare Kamptee",
    "lat": 21.225683,
    "lon": 79.201564,
    "city": "Nagpur",
    "pincode": "440018",
    "area": "Kamptee",
    "district": "Nagpur",
    "services": [
      "24x7",
      "home_delivery",
      "online_ordering"
    ],
    "delivery_km": 5,
    "rating": 4.3,
    "verified": true
  },
  {
    "id": "ph24202",
    "name": "Dr Reddys Kamptee 2",
    "lat": 21.221168,
    "lon": 79.200195,
    "city": "Nagpur",
    "pincode": "440018",
    "area": "Kamptee",
    "district": "Nagpur",
    "services": [
      "home_delivery",
      "consultation"
    ],
    "delivery_km": 10,
    "rating": 3.6,
    "verified": true
  },
  {
    "id": "ph50125",
    "name": "Fortis Pharmacy Kamptee 3",
    "lat": 21.220654,
    "lon": 79.200195,
    "city": "Nagpur",
    "pincode": "440018",
    "area": "Kamptee",
    "district": "Nagpur",
    "services": [
      "home_delivery",
      "online_ordering",
      "consultation"
    ],
    "delivery_km": 10,
    "rating": 4.5,
    "verified": true
  },
  {
    "id": "ph28552",
    "name": "Netmeds Pharmacy Kamptee 4",
    "lat": 21.226245,
    "lon": 79.209853,
    "city": "Nagpur",
    "pincode": "440018",
    "area": "Kamptee",
    "district": "Nagpur",
    "services": [
      "24x7",
      "home_delivery",
      "online_ordering"
    ],
    "delivery_km": 5,
    "rating": 3.7,
    "verified": false
  },
  {
    "id": "ph59804",
    "name": "PharmEasy Store Kamptee 5",
    "lat": 21.224536,
    "lon": 79.207219,
    "city": "Nagpur",
    "pincode": "440018",
    "area": "Kamptee",
    "district": "Nagpur",
    "services": [
      "online_ordering",
      "consultation"
    ],
    "delivery_km": 10,
    "rating": 4.6,
    "verified": true
  },
  {
    "id": "ph65189",
    "name": "HealthFirst Sadar",
    "lat": 21.143633,
    "lon": 79.09192,
    "city": "Nagpur",
    "pincode": "440022",
    "area": "Sadar",
    "district": "Nagpur",
    "services": [
      "online_ordering",
      "consultation"
    ],
    "delivery_km": 7,
    "rating": 4.2,
    "verified": true
  },
  {
    "id": "ph93516",
    "name": "VitalRx Sadar 2",
    "lat": 21.149667,
    "lon": 79.078191,
    "city": "Nagpur",
    "pincode": "440022",
    "area": "Sadar",
    "district": "Nagpur",
    "services": [
      "home_delivery",
      "consultation"
    ],
    "delivery_km": 5,
    "rating": 3.7,
    "verified": true
  },
  {
    "id": "ph92382",
    "name": "1mg Store Sadar 3",
    "lat": 21.151309,
    "lon": 79.081505,
    "city": "Nagpur",
    "pincode": "440022",
    "area": "Sadar",
    "district": "Nagpur",
    "services": [
      "online_ordering",
      "consultation"
    ],
    "delivery_km": 7,
    "rating": 4.8,
    "verified": true
  },
  {
    "id": "ph81876",
    "name": "Netmeds Pharmacy Sadar 4",
    "lat": 21.145101,
    "lon": 79.078776,
    "city": "Nagpur",
    "pincode": "440022",
    "area": "Sadar",
    "district": "Nagpur",
    "services": [
      "home_delivery"
    ],
    "delivery_km": 10,
    "rating": 4.4,
    "verified": true
  },
  {
    "id": "ph67864",
    "name": "Sanjeevani Medical Sadar 5",
    "lat": 21.145969,
    "lon": 79.078294,
    "city": "Nagpur",
    "pincode": "440022",
    "area": "Sadar",
    "district": "Nagpur",
    "services": [
      "home_delivery",
      "online_ordering",
      "consultation"
    ],
    "delivery_km": 7,
    "rating": 4.6,
    "verified": true
  },
  {
    "id": "ph65547",
    "name": "Dr Reddys Hingna",
    "lat": 21.101854,
    "lon": 78.973631,
    "city": "Nagpur",
    "pincode": "440025",
    "area": "Hingna",
    "district": "Nagpur",
    "services": [
      "24x7",
      "home_delivery"
    ],
    "delivery_km": 5,
    "rating": 4.0,
    "verified": true
  },
  {
    "id": "ph59070",
    "name": "Netmeds Pharmacy Hingna 2",
    "lat": 21.098911,
    "lon": 78.966125,
    "city": "Nagpur",
    "pincode": "440025",
    "area": "Hingna",
    "district": "Nagpur",
    "services": [
      "home_delivery"
    ],
    "delivery_km": 7,
    "rating": 4.6,
    "verified": true
  },
  {
    "id": "ph61602",
    "name": "MediHub Hingna 3",
    "lat": 21.09626,
    "lon": 78.967981,
    "city": "Nagpur",
    "pincode": "440025",
    "area": "Hingna",
    "district": "Nagpur",
    "services": [
      "home_delivery",
      "online_ordering",
      "consultation"
    ],
    "delivery_km": 10,
    "rating": 4.3,
    "verified": false
  },
  {
    "id": "ph49889",
    "name": "Metropolis Healthcare Hingna 4",
    "lat": 21.102936,
    "lon": 78.973887,
    "city": "Nagpur",
    "pincode": "440025",
    "area": "Hingna",
    "district": "Nagpur",
    "services": [
      "24x7",
      "home_delivery",
      "online_ordering"
    ],
    "delivery_km": 5,
    "rating": 4.7,
    "verified": false
  },
  {
    "id": "ph98511",
    "name": "Dr Reddys Hingna 5",
    "lat": 21.093092,
    "lon": 78.972094,
    "city": "Nagpur",
    "pincode": "440025",
    "area": "Hingna",
    "district": "Nagpur",
    "services": [
      "home_delivery"
    ],
    "delivery_km": 7,
    "rating": 4.6,
    "verified": true
  }
]